$GPGGA,053943.387,5007.951,N,00845.978,E,1,12,1.0,0.0,M,0.0,M,,*6A
$GPGSA,A,3,01,02,03,04,05,06,07,08,09,10,11,12,1.0,1.0,1.0*30
$GPRMC,053943.387,A,5007.951,N,00845.978,E,038.9,236.9,081025,000.0,W*7C
$GPGGA,053944.387,5007.945,N,00845.964,E,1,12,1.0,0.0,M,0.0,M,,*65
$GPGSA,A,3,01,02,03,04,05,06,07,08,09,10,11,12,1.0,1.0,1.0*30
$GPRMC,053944.387,A,5007.945,N,00845.964,E,038.9,236.9,081025,000.0,W*73
$GPGGA,053945.387,5007.939,N,00845.950,E,1,12,1.0,0.0,M,0.0,M,,*68
$GPGSA,A,3,01,02,03,04,05,06,07,08,09,10,11,12,1.0,1.0,1.0*30
$GPRMC,053945.387,A,5007.939,N,00845.950,E,038.9,236.9,081025,000.0,W*7E
$GPGGA,053946.387,5007.933,N,00845.936,E,1,12,1.0,0.0,M,0.0,M,,*61
$GPGSA,A,3,01,02,03,04,05,06,07,08,09,10,11,12,1.0,1.0,1.0*30
$GPRMC,053946.387,A,5007.933,N,00845.936,E,038.9,236.9,081025,000.0,W*77
$GPGGA,053947.387,5007.927,N,00845.922,E,1,12,1.0,0.0,M,0.0,M,,*60
$GPGSA,A,3,01,02,03,04,05,06,07,08,09,10,11,12,1.0,1.0,1.0*30
$GPRMC,053947.387,A,5007.927,N,00845.922,E,038.9,236.9,081025,000.0,W*76
$GPGGA,053948.387,5007.921,N,00845.907,E,1,12,1.0,0.0,M,0.0,M,,*6E
$GPGSA,A,3,01,02,03,04,05,06,07,08,09,10,11,12,1.0,1.0,1.0*30
$GPRMC,053948.387,A,5007.921,N,00845.907,E,038.9,236.9,081025,000.0,W*78
$GPGGA,053949.387,5007.915,N,00845.893,E,1,12,1.0,0.0,M,0.0,M,,*64
$GPGSA,A,3,01,02,03,04,05,06,07,08,09,10,11,12,1.0,1.0,1.0*30
$GPRMC,053949.387,A,5007.915,N,00845.893,E,038.9,236.9,081025,000.0,W*72
$GPGGA,053950.387,5007.910,N,00845.879,E,1,12,1.0,0.0,M,0.0,M,,*6D
$GPGSA,A,3,01,02,03,04,05,06,07,08,09,10,11,12,1.0,1.0,1.0*30
$GPRMC,053950.387,A,5007.910,N,00845.879,E,038.9,236.9,081025,000.0,W*7B
$GPGGA,053951.387,5007.904,N,00845.865,E,1,12,1.0,0.0,M,0.0,M,,*64
$GPGSA,A,3,01,02,03,04,05,06,07,08,09,10,11,12,1.0,1.0,1.0*30
$GPRMC,053951.387,A,5007.904,N,00845.865,E,038.9,236.9,081025,000.0,W*72
$GPGGA,053952.387,5007.898,N,00845.851,E,1,12,1.0,0.0,M,0.0,M,,*64
$GPGSA,A,3,01,02,03,04,05,06,07,08,09,10,11,12,1.0,1.0,1.0*30
$GPRMC,053952.387,A,5007.898,N,00845.851,E,038.9,236.9,081025,000.0,W*72
$GPGGA,053953.387,5007.892,N,00845.837,E,1,12,1.0,0.0,M,0.0,M,,*6F
$GPGSA,A,3,01,02,03,04,05,06,07,08,09,10,11,12,1.0,1.0,1.0*30
$GPRMC,053953.387,A,5007.892,N,00845.837,E,038.9,236.9,081025,000.0,W*79
$GPGGA,053954.387,5007.886,N,00845.823,E,1,12,1.0,0.0,M,0.0,M,,*68
$GPGSA,A,3,01,02,03,04,05,06,07,08,09,10,11,12,1.0,1.0,1.0*30
$GPRMC,053954.387,A,5007.886,N,00845.823,E,038.9,236.9,081025,000.0,W*7E
$GPGGA,053955.387,5007.880,N,00845.809,E,1,12,1.0,0.0,M,0.0,M,,*67
$GPGSA,A,3,01,02,03,04,05,06,07,08,09,10,11,12,1.0,1.0,1.0*30
$GPRMC,053955.387,A,5007.880,N,00845.809,E,038.9,236.9,081025,000.0,W*71
$GPGGA,053956.387,5007.874,N,00845.795,E,1,12,1.0,0.0,M,0.0,M,,*65
$GPGSA,A,3,01,02,03,04,05,06,07,08,09,10,11,12,1.0,1.0,1.0*30
$GPRMC,053956.387,A,5007.874,N,00845.795,E,038.9,236.9,081025,000.0,W*73
$GPGGA,053957.387,5007.868,N,00845.780,E,1,12,1.0,0.0,M,0.0,M,,*6D
$GPGSA,A,3,01,02,03,04,05,06,07,08,09,10,11,12,1.0,1.0,1.0*30
$GPRMC,053957.387,A,5007.868,N,00845.780,E,038.9,236.9,081025,000.0,W*7B
$GPGGA,053958.387,5007.862,N,00845.766,E,1,12,1.0,0.0,M,0.0,M,,*60
$GPGSA,A,3,01,02,03,04,05,06,07,08,09,10,11,12,1.0,1.0,1.0*30
$GPRMC,053958.387,A,5007.862,N,00845.766,E,038.9,236.9,081025,000.0,W*76
$GPGGA,053959.387,5007.857,N,00845.752,E,1,12,1.0,0.0,M,0.0,M,,*60
$GPGSA,A,3,01,02,03,04,05,06,07,08,09,10,11,12,1.0,1.0,1.0*30
$GPRMC,053959.387,A,5007.857,N,00845.752,E,038.9,236.9,081025,000.0,W*76
$GPGGA,054000.387,5007.851,N,00845.738,E,1,12,1.0,0.0,M,0.0,M,,*68
$GPGSA,A,3,01,02,03,04,05,06,07,08,09,10,11,12,1.0,1.0,1.0*30
$GPRMC,054000.387,A,5007.851,N,00845.738,E,038.9,236.9,081025,000.0,W*7E
$GPGGA,054001.387,5007.845,N,00845.724,E,1,12,1.0,0.0,M,0.0,M,,*61
$GPGSA,A,3,01,02,03,04,05,06,07,08,09,10,11,12,1.0,1.0,1.0*30
$GPRMC,054001.387,A,5007.845,N,00845.724,E,038.9,236.9,081025,000.0,W*77
$GPGGA,054002.387,5007.839,N,00845.710,E,1,12,1.0,0.0,M,0.0,M,,*6E
$GPGSA,A,3,01,02,03,04,05,06,07,08,09,10,11,12,1.0,1.0,1.0*30
$GPRMC,054002.387,A,5007.839,N,00845.710,E,038.9,236.9,081025,000.0,W*78
$GPGGA,054003.387,5007.833,N,00845.696,E,1,12,1.0,0.0,M,0.0,M,,*6A
$GPGSA,A,3,01,02,03,04,05,06,07,08,09,10,11,12,1.0,1.0,1.0*30
$GPRMC,054003.387,A,5007.833,N,00845.696,E,038.9,236.9,081025,000.0,W*7C
$GPGGA,054004.387,5007.827,N,00845.682,E,1,12,1.0,0.0,M,0.0,M,,*6D
$GPGSA,A,3,01,02,03,04,05,06,07,08,09,10,11,12,1.0,1.0,1.0*30
$GPRMC,054004.387,A,5007.827,N,00845.682,E,038.9,236.9,081025,000.0,W*7B
$GPGGA,054005.387,5007.821,N,00845.668,E,1,12,1.0,0.0,M,0.0,M,,*6E
$GPGSA,A,3,01,02,03,04,05,06,07,08,09,10,11,12,1.0,1.0,1.0*30
$GPRMC,054005.387,A,5007.821,N,00845.668,E,038.9,236.9,081025,000.0,W*78
$GPGGA,054006.387,5007.815,N,00845.654,E,1,12,1.0,0.0,M,0.0,M,,*65
$GPGSA,A,3,01,02,03,04,05,06,07,08,09,10,11,12,1.0,1.0,1.0*30
$GPRMC,054006.387,A,5007.815,N,00845.654,E,038.9,236.9,081025,000.0,W*73
$GPGGA,054007.387,5007.809,N,00845.639,E,1,12,1.0,0.0,M,0.0,M,,*62
$GPGSA,A,3,01,02,03,04,05,06,07,08,09,10,11,12,1.0,1.0,1.0*30
$GPRMC,054007.387,A,5007.809,N,00845.639,E,038.9,236.9,081025,000.0,W*74
$GPGGA,054008.387,5007.804,N,00845.625,E,1,12,1.0,0.0,M,0.0,M,,*6D
$GPGSA,A,3,01,02,03,04,05,06,07,08,09,10,11,12,1.0,1.0,1.0*30
$GPRMC,054008.387,A,5007.804,N,00845.625,E,038.9,236.9,081025,000.0,W*7B
$GPGGA,054009.387,5007.798,N,00845.611,E,1,12,1.0,0.0,M,0.0,M,,*61
$GPGSA,A,3,01,02,03,04,05,06,07,08,09,10,11,12,1.0,1.0,1.0*30
$GPRMC,054009.387,A,5007.798,N,00845.611,E,038.9,236.9,081025,000.0,W*77
$GPGGA,054010.387,5007.792,N,00845.597,E,1,12,1.0,0.0,M,0.0,M,,*6E
$GPGSA,A,3,01,02,03,04,05,06,07,08,09,10,11,12,1.0,1.0,1.0*30
$GPRMC,054010.387,A,5007.792,N,00845.597,E,038.9,236.9,081025,000.0,W*78
$GPGGA,054011.387,5007.786,N,00845.583,E,1,12,1.0,0.0,M,0.0,M,,*6F
$GPGSA,A,3,01,02,03,04,05,06,07,08,09,10,11,12,1.0,1.0,1.0*30
$GPRMC,054011.387,A,5007.786,N,00845.583,E,038.9,242.8,081025,000.0,W*7B
$GPGGA,054012.387,5007.781,N,00845.568,E,1,12,1.0,0.0,M,0.0,M,,*6E
$GPGSA,A,3,01,02,03,04,05,06,07,08,09,10,11,12,1.0,1.0,1.0*30
$GPRMC,054012.387,A,5007.781,N,00845.568,E,038.9,242.8,081025,000.0,W*7A
$GPGGA,054013.387,5007.776,N,00845.553,E,1,12,1.0,0.0,M,0.0,M,,*6F
$GPGSA,A,3,01,02,03,04,05,06,07,08,09,10,11,12,1.0,1.0,1.0*30
$GPRMC,054013.387,A,5007.776,N,00845.553,E,038.9,242.8,081025,000.0,W*7B
$GPGGA,054014.387,5007.771,N,00845.538,E,1,12,1.0,0.0,M,0.0,M,,*62
$GPGSA,A,3,01,02,03,04,05,06,07,08,09,10,11,12,1.0,1.0,1.0*30
$GPRMC,054014.387,A,5007.771,N,00845.538,E,038.9,242.8,081025,000.0,W*76
$GPGGA,054015.387,5007.766,N,00845.523,E,1,12,1.0,0.0,M,0.0,M,,*6F
$GPGSA,A,3,01,02,03,04,05,06,07,08,09,10,11,12,1.0,1.0,1.0*30
$GPRMC,054015.387,A,5007.766,N,00845.523,E,038.9,242.8,081025,000.0,W*7B
$GPGGA,054016.387,5007.761,N,00845.508,E,1,12,1.0,0.0,M,0.0,M,,*62
$GPGSA,A,3,01,02,03,04,05,06,07,08,09,10,11,12,1.0,1.0,1.0*30
$GPRMC,054016.387,A,5007.761,N,00845.508,E,038.9,242.8,081025,000.0,W*76
$GPGGA,054017.387,5007.756,N,00845.493,E,1,12,1.0,0.0,M,0.0,M,,*64
$GPGSA,A,3,01,02,03,04,05,06,07,08,09,10,11,12,1.0,1.0,1.0*30
$GPRMC,054017.387,A,5007.756,N,00845.493,E,038.9,242.8,081025,000.0,W*70
$GPGGA,054018.387,5007.751,N,00845.478,E,1,12,1.0,0.0,M,0.0,M,,*69
$GPGSA,A,3,01,02,03,04,05,06,07,08,09,10,11,12,1.0,1.0,1.0*30
$GPRMC,054018.387,A,5007.751,N,00845.478,E,038.9,242.8,081025,000.0,W*7D
$GPGGA,054019.387,5007.746,N,00845.463,E,1,12,1.0,0.0,M,0.0,M,,*64
$GPGSA,A,3,01,02,03,04,05,06,07,08,09,10,11,12,1.0,1.0,1.0*30
$GPRMC,054019.387,A,5007.746,N,00845.463,E,038.9,242.8,081025,000.0,W*70
$GPGGA,054020.387,5007.741,N,00845.448,E,1,12,1.0,0.0,M,0.0,M,,*60
$GPGSA,A,3,01,02,03,04,05,06,07,08,09,10,11,12,1.0,1.0,1.0*30
$GPRMC,054020.387,A,5007.741,N,00845.448,E,038.9,242.8,081025,000.0,W*74
$GPGGA,054021.387,5007.736,N,00845.433,E,1,12,1.0,0.0,M,0.0,M,,*6D
$GPGSA,A,3,01,02,03,04,05,06,07,08,09,10,11,12,1.0,1.0,1.0*30
$GPRMC,054021.387,A,5007.736,N,00845.433,E,038.9,242.8,081025,000.0,W*79
$GPGGA,054022.387,5007.731,N,00845.418,E,1,12,1.0,0.0,M,0.0,M,,*60
$GPGSA,A,3,01,02,03,04,05,06,07,08,09,10,11,12,1.0,1.0,1.0*30
$GPRMC,054022.387,A,5007.731,N,00845.418,E,038.9,242.8,081025,000.0,W*74
$GPGGA,054023.387,5007.727,N,00845.403,E,1,12,1.0,0.0,M,0.0,M,,*6C
$GPGSA,A,3,01,02,03,04,05,06,07,08,09,10,11,12,1.0,1.0,1.0*30
$GPRMC,054023.387,A,5007.727,N,00845.403,E,038.9,242.8,081025,000.0,W*78
$GPGGA,054024.387,5007.722,N,00845.388,E,1,12,1.0,0.0,M,0.0,M,,*6A
$GPGSA,A,3,01,02,03,04,05,06,07,08,09,10,11,12,1.0,1.0,1.0*30
$GPRMC,054024.387,A,5007.722,N,00845.388,E,038.9,242.8,081025,000.0,W*7E
$GPGGA,054025.387,5007.717,N,00845.373,E,1,12,1.0,0.0,M,0.0,M,,*69
$GPGSA,A,3,01,02,03,04,05,06,07,08,09,10,11,12,1.0,1.0,1.0*30
$GPRMC,054025.387,A,5007.717,N,00845.373,E,038.9,242.8,081025,000.0,W*7D
$GPGGA,054026.387,5007.712,N,00845.359,E,1,12,1.0,0.0,M,0.0,M,,*67
$GPGSA,A,3,01,02,03,04,05,06,07,08,09,10,11,12,1.0,1.0,1.0*30
$GPRMC,054026.387,A,5007.712,N,00845.359,E,038.9,242.8,081025,000.0,W*73
$GPGGA,054027.387,5007.707,N,00845.344,E,1,12,1.0,0.0,M,0.0,M,,*6E
$GPGSA,A,3,01,02,03,04,05,06,07,08,09,10,11,12,1.0,1.0,1.0*30
$GPRMC,054027.387,A,5007.707,N,00845.344,E,038.9,242.8,081025,000.0,W*7A
$GPGGA,054028.387,5007.702,N,00845.329,E,1,12,1.0,0.0,M,0.0,M,,*6F
$GPGSA,A,3,01,02,03,04,05,06,07,08,09,10,11,12,1.0,1.0,1.0*30
$GPRMC,054028.387,A,5007.702,N,00845.329,E,038.9,242.8,081025,000.0,W*7B
$GPGGA,054029.387,5007.697,N,00845.314,E,1,12,1.0,0.0,M,0.0,M,,*6D
$GPGSA,A,3,01,02,03,04,05,06,07,08,09,10,11,12,1.0,1.0,1.0*30
$GPRMC,054029.387,A,5007.697,N,00845.314,E,038.9,242.8,081025,000.0,W*79
$GPGGA,054030.387,5007.692,N,00845.299,E,1,12,1.0,0.0,M,0.0,M,,*64
$GPGSA,A,3,01,02,03,04,05,06,07,08,09,10,11,12,1.0,1.0,1.0*30
$GPRMC,054030.387,A,5007.692,N,00845.299,E,038.9,242.8,081025,000.0,W*70
$GPGGA,054031.387,5007.687,N,00845.284,E,1,12,1.0,0.0,M,0.0,M,,*6D
$GPGSA,A,3,01,02,03,04,05,06,07,08,09,10,11,12,1.0,1.0,1.0*30
$GPRMC,054031.387,A,5007.687,N,00845.284,E,038.9,242.8,081025,000.0,W*79
$GPGGA,054032.387,5007.682,N,00845.269,E,1,12,1.0,0.0,M,0.0,M,,*68
$GPGSA,A,3,01,02,03,04,05,06,07,08,09,10,11,12,1.0,1.0,1.0*30
$GPRMC,054032.387,A,5007.682,N,00845.269,E,038.9,242.8,081025,000.0,W*7C
$GPGGA,054033.387,5007.677,N,00845.254,E,1,12,1.0,0.0,M,0.0,M,,*6D
$GPGSA,A,3,01,02,03,04,05,06,07,08,09,10,11,12,1.0,1.0,1.0*30
$GPRMC,054033.387,A,5007.677,N,00845.254,E,038.9,242.8,081025,000.0,W*79
$GPGGA,054034.387,5007.672,N,00845.239,E,1,12,1.0,0.0,M,0.0,M,,*64
$GPGSA,A,3,01,02,03,04,05,06,07,08,09,10,11,12,1.0,1.0,1.0*30
$GPRMC,054034.387,A,5007.672,N,00845.239,E,038.9,242.8,081025,000.0,W*70
$GPGGA,054035.387,5007.667,N,00845.224,E,1,12,1.0,0.0,M,0.0,M,,*6D
$GPGSA,A,3,01,02,03,04,05,06,07,08,09,10,11,12,1.0,1.0,1.0*30
$GPRMC,054035.387,A,5007.667,N,00845.224,E,038.9,242.8,081025,000.0,W*79
$GPGGA,054036.387,5007.662,N,00845.209,E,1,12,1.0,0.0,M,0.0,M,,*64
$GPGSA,A,3,01,02,03,04,05,06,07,08,09,10,11,12,1.0,1.0,1.0*30
$GPRMC,054036.387,A,5007.662,N,00845.209,E,038.9,242.8,081025,000.0,W*70
$GPGGA,054037.387,5007.657,N,00845.194,E,1,12,1.0,0.0,M,0.0,M,,*64
$GPGSA,A,3,01,02,03,04,05,06,07,08,09,10,11,12,1.0,1.0,1.0*30
$GPRMC,054037.387,A,5007.657,N,00845.194,E,038.9,242.8,081025,000.0,W*70
$GPGGA,054038.387,5007.652,N,00845.179,E,1,12,1.0,0.0,M,0.0,M,,*6D
$GPGSA,A,3,01,02,03,04,05,06,07,08,09,10,11,12,1.0,1.0,1.0*30
$GPRMC,054038.387,A,5007.652,N,00845.179,E,038.9,242.8,081025,000.0,W*79
$GPGGA,054039.387,5007.647,N,00845.164,E,1,12,1.0,0.0,M,0.0,M,,*64
$GPGSA,A,3,01,02,03,04,05,06,07,08,09,10,11,12,1.0,1.0,1.0*30
$GPRMC,054039.387,A,5007.647,N,00845.164,E,038.9,242.8,081025,000.0,W*70
$GPGGA,054040.387,5007.643,N,00845.149,E,1,12,1.0,0.0,M,0.0,M,,*61
$GPGSA,A,3,01,02,03,04,05,06,07,08,09,10,11,12,1.0,1.0,1.0*30
$GPRMC,054040.387,A,5007.643,N,00845.149,E,038.9,242.8,081025,000.0,W*75
$GPGGA,054041.387,5007.638,N,00845.134,E,1,12,1.0,0.0,M,0.0,M,,*66
$GPGSA,A,3,01,02,03,04,05,06,07,08,09,10,11,12,1.0,1.0,1.0*30
$GPRMC,054041.387,A,5007.638,N,00845.134,E,038.9,239.1,081025,000.0,W*77
$GPGGA,054042.387,5007.632,N,00845.120,E,1,12,1.0,0.0,M,0.0,M,,*6A
$GPGSA,A,3,01,02,03,04,05,06,07,08,09,10,11,12,1.0,1.0,1.0*30
$GPRMC,054042.387,A,5007.632,N,00845.120,E,038.9,239.1,081025,000.0,W*7B
$GPGGA,054043.387,5007.627,N,00845.105,E,1,12,1.0,0.0,M,0.0,M,,*68
$GPGSA,A,3,01,02,03,04,05,06,07,08,09,10,11,12,1.0,1.0,1.0*30
$GPRMC,054043.387,A,5007.627,N,00845.105,E,038.9,239.1,081025,000.0,W*79
$GPGGA,054044.387,5007.621,N,00845.091,E,1,12,1.0,0.0,M,0.0,M,,*65
$GPGSA,A,3,01,02,03,04,05,06,07,08,09,10,11,12,1.0,1.0,1.0*30
$GPRMC,054044.387,A,5007.621,N,00845.091,E,038.9,239.1,081025,000.0,W*74
$GPGGA,054045.387,5007.615,N,00845.076,E,1,12,1.0,0.0,M,0.0,M,,*6A
$GPGSA,A,3,01,02,03,04,05,06,07,08,09,10,11,12,1.0,1.0,1.0*30
$GPRMC,054045.387,A,5007.615,N,00845.076,E,038.9,239.1,081025,000.0,W*7B
$GPGGA,054046.387,5007.610,N,00845.062,E,1,12,1.0,0.0,M,0.0,M,,*69
$GPGSA,A,3,01,02,03,04,05,06,07,08,09,10,11,12,1.0,1.0,1.0*30
$GPRMC,054046.387,A,5007.610,N,00845.062,E,038.9,239.1,081025,000.0,W*78
$GPGGA,054047.387,5007.604,N,00845.047,E,1,12,1.0,0.0,M,0.0,M,,*6A
$GPGSA,A,3,01,02,03,04,05,06,07,08,09,10,11,12,1.0,1.0,1.0*30
$GPRMC,054047.387,A,5007.604,N,00845.047,E,038.9,239.1,081025,000.0,W*7B
$GPGGA,054048.387,5007.599,N,00845.033,E,1,12,1.0,0.0,M,0.0,M,,*61
$GPGSA,A,3,01,02,03,04,05,06,07,08,09,10,11,12,1.0,1.0,1.0*30
$GPRMC,054048.387,A,5007.599,N,00845.033,E,038.9,239.1,081025,000.0,W*70
$GPGGA,054049.387,5007.593,N,00845.018,E,1,12,1.0,0.0,M,0.0,M,,*63
$GPGSA,A,3,01,02,03,04,05,06,07,08,09,10,11,12,1.0,1.0,1.0*30
$GPRMC,054049.387,A,5007.593,N,00845.018,E,038.9,239.1,081025,000.0,W*72
$GPGGA,054050.387,5007.588,N,00845.004,E,1,12,1.0,0.0,M,0.0,M,,*6C
$GPGSA,A,3,01,02,03,04,05,06,07,08,09,10,11,12,1.0,1.0,1.0*30
$GPRMC,054050.387,A,5007.588,N,00845.004,E,038.9,239.1,081025,000.0,W*7D
$GPGGA,054051.387,5007.582,N,00844.990,E,1,12,1.0,0.0,M,0.0,M,,*62
$GPGSA,A,3,01,02,03,04,05,06,07,08,09,10,11,12,1.0,1.0,1.0*30
$GPRMC,054051.387,A,5007.582,N,00844.990,E,038.9,239.1,081025,000.0,W*73
$GPGGA,054052.387,5007.577,N,00844.975,E,1,12,1.0,0.0,M,0.0,M,,*60
$GPGSA,A,3,01,02,03,04,05,06,07,08,09,10,11,12,1.0,1.0,1.0*30
$GPRMC,054052.387,A,5007.577,N,00844.975,E,038.9,239.1,081025,000.0,W*71
$GPGGA,054053.387,5007.571,N,00844.961,E,1,12,1.0,0.0,M,0.0,M,,*62
$GPGSA,A,3,01,02,03,04,05,06,07,08,09,10,11,12,1.0,1.0,1.0*30
$GPRMC,054053.387,A,5007.571,N,00844.961,E,038.9,239.1,081025,000.0,W*73
$GPGGA,054054.387,5007.566,N,00844.946,E,1,12,1.0,0.0,M,0.0,M,,*66
$GPGSA,A,3,01,02,03,04,05,06,07,08,09,10,11,12,1.0,1.0,1.0*30
$GPRMC,054054.387,A,5007.566,N,00844.946,E,038.9,239.1,081025,000.0,W*77
$GPGGA,054055.387,5007.560,N,00844.932,E,1,12,1.0,0.0,M,0.0,M,,*62
$GPGSA,A,3,01,02,03,04,05,06,07,08,09,10,11,12,1.0,1.0,1.0*30
$GPRMC,054055.387,A,5007.560,N,00844.932,E,038.9,239.1,081025,000.0,W*73
$GPGGA,054056.387,5007.554,N,00844.917,E,1,12,1.0,0.0,M,0.0,M,,*61
$GPGSA,A,3,01,02,03,04,05,06,07,08,09,10,11,12,1.0,1.0,1.0*30
$GPRMC,054056.387,A,5007.554,N,00844.917,E,038.9,239.1,081025,000.0,W*70
$GPGGA,054057.387,5007.549,N,00844.903,E,1,12,1.0,0.0,M,0.0,M,,*69
$GPGSA,A,3,01,02,03,04,05,06,07,08,09,10,11,12,1.0,1.0,1.0*30
$GPRMC,054057.387,A,5007.549,N,00844.903,E,038.9,239.1,081025,000.0,W*78
$GPGGA,054058.387,5007.543,N,00844.888,E,1,12,1.0,0.0,M,0.0,M,,*6E
$GPGSA,A,3,01,02,03,04,05,06,07,08,09,10,11,12,1.0,1.0,1.0*30
$GPRMC,054058.387,A,5007.543,N,00844.888,E,038.9,239.1,081025,000.0,W*7F
$GPGGA,054059.387,5007.538,N,00844.874,E,1,12,1.0,0.0,M,0.0,M,,*60
$GPGSA,A,3,01,02,03,04,05,06,07,08,09,10,11,12,1.0,1.0,1.0*30
$GPRMC,054059.387,A,5007.538,N,00844.874,E,038.9,239.1,081025,000.0,W*71
$GPGGA,054100.387,5007.532,N,00844.860,E,1,12,1.0,0.0,M,0.0,M,,*62
$GPGSA,A,3,01,02,03,04,05,06,07,08,09,10,11,12,1.0,1.0,1.0*30
$GPRMC,054100.387,A,5007.532,N,00844.860,E,038.9,239.1,081025,000.0,W*73
$GPGGA,054101.387,5007.527,N,00844.845,E,1,12,1.0,0.0,M,0.0,M,,*60
$GPGSA,A,3,01,02,03,04,05,06,07,08,09,10,11,12,1.0,1.0,1.0*30
$GPRMC,054101.387,A,5007.527,N,00844.845,E,038.9,239.1,081025,000.0,W*71
$GPGGA,054102.387,5007.521,N,00844.831,E,1,12,1.0,0.0,M,0.0,M,,*66
$GPGSA,A,3,01,02,03,04,05,06,07,08,09,10,11,12,1.0,1.0,1.0*30
$GPRMC,054102.387,A,5007.521,N,00844.831,E,038.9,239.1,081025,000.0,W*77
$GPGGA,054103.387,5007.516,N,00844.816,E,1,12,1.0,0.0,M,0.0,M,,*66
$GPGSA,A,3,01,02,03,04,05,06,07,08,09,10,11,12,1.0,1.0,1.0*30
$GPRMC,054103.387,A,5007.516,N,00844.816,E,038.9,239.1,081025,000.0,W*77
$GPGGA,054104.387,5007.510,N,00844.802,E,1,12,1.0,0.0,M,0.0,M,,*62
$GPGSA,A,3,01,02,03,04,05,06,07,08,09,10,11,12,1.0,1.0,1.0*30
$GPRMC,054104.387,A,5007.510,N,00844.802,E,038.9,239.1,081025,000.0,W*73
$GPGGA,054105.387,5007.505,N,00844.787,E,1,12,1.0,0.0,M,0.0,M,,*65
$GPGSA,A,3,01,02,03,04,05,06,07,08,09,10,11,12,1.0,1.0,1.0*30
$GPRMC,054105.387,A,5007.505,N,00844.787,E,038.9,239.1,081025,000.0,W*74
$GPGGA,054106.387,5007.499,N,00844.773,E,1,12,1.0,0.0,M,0.0,M,,*69
$GPGSA,A,3,01,02,03,04,05,06,07,08,09,10,11,12,1.0,1.0,1.0*30
$GPRMC,054106.387,A,5007.499,N,00844.773,E,038.9,239.1,081025,000.0,W*78
$GPGGA,054107.387,5007.494,N,00844.758,E,1,12,1.0,0.0,M,0.0,M,,*6C
$GPGSA,A,3,01,02,03,04,05,06,07,08,09,10,11,12,1.0,1.0,1.0*30
$GPRMC,054107.387,A,5007.494,N,00844.758,E,038.9,239.1,081025,000.0,W*7D
$GPGGA,054108.387,5007.488,N,00844.744,E,1,12,1.0,0.0,M,0.0,M,,*63
$GPGSA,A,3,01,02,03,04,05,06,07,08,09,10,11,12,1.0,1.0,1.0*30
$GPRMC,054108.387,A,5007.488,N,00844.744,E,038.9,239.1,081025,000.0,W*72
$GPGGA,054109.387,5007.482,N,00844.730,E,1,12,1.0,0.0,M,0.0,M,,*6B
$GPGSA,A,3,01,02,03,04,05,06,07,08,09,10,11,12,1.0,1.0,1.0*30
$GPRMC,054109.387,A,5007.482,N,00844.730,E,038.9,239.1,081025,000.0,W*7A
$GPGGA,054110.387,5007.477,N,00844.715,E,1,12,1.0,0.0,M,0.0,M,,*6E
$GPGSA,A,3,01,02,03,04,05,06,07,08,09,10,11,12,1.0,1.0,1.0*30
$GPRMC,054110.387,A,5007.477,N,00844.715,E,038.9,239.1,081025,000.0,W*7F
$GPGGA,054111.387,5007.471,N,00844.701,E,1,12,1.0,0.0,M,0.0,M,,*6C
$GPGSA,A,3,01,02,03,04,05,06,07,08,09,10,11,12,1.0,1.0,1.0*30
$GPRMC,054111.387,A,5007.471,N,00844.701,E,038.9,239.1,081025,000.0,W*7D
$GPGGA,054112.387,5007.466,N,00844.686,E,1,12,1.0,0.0,M,0.0,M,,*67
$GPGSA,A,3,01,02,03,04,05,06,07,08,09,10,11,12,1.0,1.0,1.0*30
$GPRMC,054112.387,A,5007.466,N,00844.686,E,038.9,239.1,081025,000.0,W*76
$GPGGA,054113.387,5007.460,N,00844.672,E,1,12,1.0,0.0,M,0.0,M,,*6B
$GPGSA,A,3,01,02,03,04,05,06,07,08,09,10,11,12,1.0,1.0,1.0*30
$GPRMC,054113.387,A,5007.460,N,00844.672,E,038.9,236.6,081025,000.0,W*72
$GPGGA,054114.387,5007.454,N,00844.658,E,1,12,1.0,0.0,M,0.0,M,,*63
$GPGSA,A,3,01,02,03,04,05,06,07,08,09,10,11,12,1.0,1.0,1.0*30
$GPRMC,054114.387,A,5007.454,N,00844.658,E,038.9,236.6,081025,000.0,W*7A
$GPGGA,054115.387,5007.448,N,00844.644,E,1,12,1.0,0.0,M,0.0,M,,*62
$GPGSA,A,3,01,02,03,04,05,06,07,08,09,10,11,12,1.0,1.0,1.0*30
$GPRMC,054115.387,A,5007.448,N,00844.644,E,038.9,236.6,081025,000.0,W*7B
$GPGGA,054116.387,5007.442,N,00844.630,E,1,12,1.0,0.0,M,0.0,M,,*68
$GPGSA,A,3,01,02,03,04,05,06,07,08,09,10,11,12,1.0,1.0,1.0*30
$GPRMC,054116.387,A,5007.442,N,00844.630,E,038.9,236.6,081025,000.0,W*71
$GPGGA,054117.387,5007.436,N,00844.616,E,1,12,1.0,0.0,M,0.0,M,,*6E
$GPGSA,A,3,01,02,03,04,05,06,07,08,09,10,11,12,1.0,1.0,1.0*30
$GPRMC,054117.387,A,5007.436,N,00844.616,E,038.9,236.6,081025,000.0,W*77
$GPGGA,054118.387,5007.431,N,00844.602,E,1,12,1.0,0.0,M,0.0,M,,*63
$GPGSA,A,3,01,02,03,04,05,06,07,08,09,10,11,12,1.0,1.0,1.0*30
$GPRMC,054118.387,A,5007.431,N,00844.602,E,038.9,236.6,081025,000.0,W*7A
$GPGGA,054119.387,5007.425,N,00844.588,E,1,12,1.0,0.0,M,0.0,M,,*66
$GPGSA,A,3,01,02,03,04,05,06,07,08,09,10,11,12,1.0,1.0,1.0*30
$GPRMC,054119.387,A,5007.425,N,00844.588,E,038.9,236.6,081025,000.0,W*7F
$GPGGA,054120.387,5007.419,N,00844.573,E,1,12,1.0,0.0,M,0.0,M,,*67
$GPGSA,A,3,01,02,03,04,05,06,07,08,09,10,11,12,1.0,1.0,1.0*30
$GPRMC,054120.387,A,5007.419,N,00844.573,E,038.9,236.6,081025,000.0,W*7E
$GPGGA,054121.387,5007.413,N,00844.559,E,1,12,1.0,0.0,M,0.0,M,,*64
$GPGSA,A,3,01,02,03,04,05,06,07,08,09,10,11,12,1.0,1.0,1.0*30
$GPRMC,054121.387,A,5007.413,N,00844.559,E,038.9,236.6,081025,000.0,W*7D
$GPGGA,054122.387,5007.407,N,00844.545,E,1,12,1.0,0.0,M,0.0,M,,*6F
$GPGSA,A,3,01,02,03,04,05,06,07,08,09,10,11,12,1.0,1.0,1.0*30
$GPRMC,054122.387,A,5007.407,N,00844.545,E,038.9,236.6,081025,000.0,W*76
$GPGGA,054123.387,5007.401,N,00844.531,E,1,12,1.0,0.0,M,0.0,M,,*6B
$GPGSA,A,3,01,02,03,04,05,06,07,08,09,10,11,12,1.0,1.0,1.0*30
$GPRMC,054123.387,A,5007.401,N,00844.531,E,038.9,236.6,081025,000.0,W*72
$GPGGA,054124.387,5007.395,N,00844.517,E,1,12,1.0,0.0,M,0.0,M,,*62
$GPGSA,A,3,01,02,03,04,05,06,07,08,09,10,11,12,1.0,1.0,1.0*30
$GPRMC,054124.387,A,5007.395,N,00844.517,E,038.9,236.6,081025,000.0,W*7B
$GPGGA,054125.387,5007.389,N,00844.503,E,1,12,1.0,0.0,M,0.0,M,,*6B
$GPGSA,A,3,01,02,03,04,05,06,07,08,09,10,11,12,1.0,1.0,1.0*30
$GPRMC,054125.387,A,5007.389,N,00844.503,E,038.9,236.6,081025,000.0,W*72
$GPGGA,054126.387,5007.383,N,00844.489,E,1,12,1.0,0.0,M,0.0,M,,*61
$GPGSA,A,3,01,02,03,04,05,06,07,08,09,10,11,12,1.0,1.0,1.0*30
$GPRMC,054126.387,A,5007.383,N,00844.489,E,038.9,236.6,081025,000.0,W*78
$GPGGA,054127.387,5007.377,N,00844.475,E,1,12,1.0,0.0,M,0.0,M,,*68
$GPGSA,A,3,01,02,03,04,05,06,07,08,09,10,11,12,1.0,1.0,1.0*30
$GPRMC,054127.387,A,5007.377,N,00844.475,E,038.9,236.6,081025,000.0,W*71
$GPGGA,054128.387,5007.371,N,00844.461,E,1,12,1.0,0.0,M,0.0,M,,*64
$GPGSA,A,3,01,02,03,04,05,06,07,08,09,10,11,12,1.0,1.0,1.0*30
$GPRMC,054128.387,A,5007.371,N,00844.461,E,038.9,236.6,081025,000.0,W*7D
$GPGGA,054129.387,5007.365,N,00844.447,E,1,12,1.0,0.0,M,0.0,M,,*64
$GPGSA,A,3,01,02,03,04,05,06,07,08,09,10,11,12,1.0,1.0,1.0*30
$GPRMC,054129.387,A,5007.365,N,00844.447,E,038.9,236.6,081025,000.0,W*7D
$GPGGA,054130.387,5007.359,N,00844.433,E,1,12,1.0,0.0,M,0.0,M,,*60
$GPGSA,A,3,01,02,03,04,05,06,07,08,09,10,11,12,1.0,1.0,1.0*30
$GPRMC,054130.387,A,5007.359,N,00844.433,E,038.9,236.6,081025,000.0,W*79
$GPGGA,054131.387,5007.353,N,00844.419,E,1,12,1.0,0.0,M,0.0,M,,*63
$GPGSA,A,3,01,02,03,04,05,06,07,08,09,10,11,12,1.0,1.0,1.0*30
$GPRMC,054131.387,A,5007.353,N,00844.419,E,038.9,236.6,081025,000.0,W*7A
$GPGGA,054132.387,5007.347,N,00844.405,E,1,12,1.0,0.0,M,0.0,M,,*68
$GPGSA,A,3,01,02,03,04,05,06,07,08,09,10,11,12,1.0,1.0,1.0*30
$GPRMC,054132.387,A,5007.347,N,00844.405,E,038.9,236.6,081025,000.0,W*71
$GPGGA,054133.387,5007.341,N,00844.391,E,1,12,1.0,0.0,M,0.0,M,,*65
$GPGSA,A,3,01,02,03,04,05,06,07,08,09,10,11,12,1.0,1.0,1.0*30
$GPRMC,054133.387,A,5007.341,N,00844.391,E,038.9,236.6,081025,000.0,W*7C
$GPGGA,054134.387,5007.335,N,00844.377,E,1,12,1.0,0.0,M,0.0,M,,*69
$GPGSA,A,3,01,02,03,04,05,06,07,08,09,10,11,12,1.0,1.0,1.0*30
$GPRMC,054134.387,A,5007.335,N,00844.377,E,038.9,236.6,081025,000.0,W*70
$GPGGA,054135.387,5007.329,N,00844.363,E,1,12,1.0,0.0,M,0.0,M,,*60
$GPGSA,A,3,01,02,03,04,05,06,07,08,09,10,11,12,1.0,1.0,1.0*30
$GPRMC,054135.387,A,5007.329,N,00844.363,E,038.9,236.6,081025,000.0,W*79
$GPGGA,054136.387,5007.324,N,00844.349,E,1,12,1.0,0.0,M,0.0,M,,*66
$GPGSA,A,3,01,02,03,04,05,06,07,08,09,10,11,12,1.0,1.0,1.0*30
$GPRMC,054136.387,A,5007.324,N,00844.349,E,038.9,236.6,081025,000.0,W*7F
$GPGGA,054137.387,5007.318,N,00844.335,E,1,12,1.0,0.0,M,0.0,M,,*63
$GPGSA,A,3,01,02,03,04,05,06,07,08,09,10,11,12,1.0,1.0,1.0*30
$GPRMC,054137.387,A,5007.318,N,00844.335,E,038.9,236.6,081025,000.0,W*7A
$GPGGA,054138.387,5007.312,N,00844.321,E,1,12,1.0,0.0,M,0.0,M,,*63
$GPGSA,A,3,01,02,03,04,05,06,07,08,09,10,11,12,1.0,1.0,1.0*30
$GPRMC,054138.387,A,5007.312,N,00844.321,E,038.9,236.6,081025,000.0,W*7A
$GPGGA,054139.387,5007.306,N,00844.307,E,1,12,1.0,0.0,M,0.0,M,,*63
$GPGSA,A,3,01,02,03,04,05,06,07,08,09,10,11,12,1.0,1.0,1.0*30
$GPRMC,054139.387,A,5007.306,N,00844.307,E,038.9,236.6,081025,000.0,W*7A
$GPGGA,054140.387,5007.300,N,00844.293,E,1,12,1.0,0.0,M,0.0,M,,*67
$GPGSA,A,3,01,02,03,04,05,06,07,08,09,10,11,12,1.0,1.0,1.0*30
$GPRMC,054140.387,A,5007.300,N,00844.293,E,038.9,236.6,081025,000.0,W*7E
$GPGGA,054141.387,5007.294,N,00844.278,E,1,12,1.0,0.0,M,0.0,M,,*6F
$GPGSA,A,3,01,02,03,04,05,06,07,08,09,10,11,12,1.0,1.0,1.0*30
$GPRMC,054141.387,A,5007.294,N,00844.278,E,038.9,236.6,081025,000.0,W*76
$GPGGA,054142.387,5007.288,N,00844.264,E,1,12,1.0,0.0,M,0.0,M,,*6C
$GPGSA,A,3,01,02,03,04,05,06,07,08,09,10,11,12,1.0,1.0,1.0*30
$GPRMC,054142.387,A,5007.288,N,00844.264,E,038.9,236.6,081025,000.0,W*75
$GPGGA,054143.387,5007.282,N,00844.250,E,1,12,1.0,0.0,M,0.0,M,,*60
$GPGSA,A,3,01,02,03,04,05,06,07,08,09,10,11,12,1.0,1.0,1.0*30
$GPRMC,054143.387,A,5007.282,N,00844.250,E,038.9,236.6,081025,000.0,W*79
$GPGGA,054144.387,5007.276,N,00844.236,E,1,12,1.0,0.0,M,0.0,M,,*6C
$GPGSA,A,3,01,02,03,04,05,06,07,08,09,10,11,12,1.0,1.0,1.0*30
$GPRMC,054144.387,A,5007.276,N,00844.236,E,038.9,236.6,081025,000.0,W*75
$GPGGA,054145.387,5007.270,N,00844.222,E,1,12,1.0,0.0,M,0.0,M,,*6E
$GPGSA,A,3,01,02,03,04,05,06,07,08,09,10,11,12,1.0,1.0,1.0*30
$GPRMC,054145.387,A,5007.270,N,00844.222,E,038.9,236.6,081025,000.0,W*77
$GPGGA,054146.387,5007.264,N,00844.208,E,1,12,1.0,0.0,M,0.0,M,,*60
$GPGSA,A,3,01,02,03,04,05,06,07,08,09,10,11,12,1.0,1.0,1.0*30
$GPRMC,054146.387,A,5007.264,N,00844.208,E,038.9,236.6,081025,000.0,W*79
$GPGGA,054147.387,5007.258,N,00844.194,E,1,12,1.0,0.0,M,0.0,M,,*68
$GPGSA,A,3,01,02,03,04,05,06,07,08,09,10,11,12,1.0,1.0,1.0*30
$GPRMC,054147.387,A,5007.258,N,00844.194,E,038.9,236.6,081025,000.0,W*71
$GPGGA,054148.387,5007.252,N,00844.180,E,1,12,1.0,0.0,M,0.0,M,,*68
$GPGSA,A,3,01,02,03,04,05,06,07,08,09,10,11,12,1.0,1.0,1.0*30
$GPRMC,054148.387,A,5007.252,N,00844.180,E,038.9,236.6,081025,000.0,W*71
$GPGGA,054149.387,5007.246,N,00844.166,E,1,12,1.0,0.0,M,0.0,M,,*64
$GPGSA,A,3,01,02,03,04,05,06,07,08,09,10,11,12,1.0,1.0,1.0*30
$GPRMC,054149.387,A,5007.246,N,00844.166,E,038.9,236.6,081025,000.0,W*7D
$GPGGA,054150.387,5007.240,N,00844.152,E,1,12,1.0,0.0,M,0.0,M,,*6D
$GPGSA,A,3,01,02,03,04,05,06,07,08,09,10,11,12,1.0,1.0,1.0*30
$GPRMC,054150.387,A,5007.240,N,00844.152,E,038.9,236.6,081025,000.0,W*74
$GPGGA,054151.387,5007.234,N,00844.138,E,1,12,1.0,0.0,M,0.0,M,,*63
$GPGSA,A,3,01,02,03,04,05,06,07,08,09,10,11,12,1.0,1.0,1.0*30
$GPRMC,054151.387,A,5007.234,N,00844.138,E,038.9,236.6,081025,000.0,W*7A
$GPGGA,054152.387,5007.228,N,00844.124,E,1,12,1.0,0.0,M,0.0,M,,*60
$GPGSA,A,3,01,02,03,04,05,06,07,08,09,10,11,12,1.0,1.0,1.0*30
$GPRMC,054152.387,A,5007.228,N,00844.124,E,038.9,236.6,081025,000.0,W*79
$GPGGA,054153.387,5007.222,N,00844.110,E,1,12,1.0,0.0,M,0.0,M,,*6C
$GPGSA,A,3,01,02,03,04,05,06,07,08,09,10,11,12,1.0,1.0,1.0*30
$GPRMC,054153.387,A,5007.222,N,00844.110,E,038.9,236.6,081025,000.0,W*75
$GPGGA,054154.387,5007.217,N,00844.096,E,1,12,1.0,0.0,M,0.0,M,,*62
$GPGSA,A,3,01,02,03,04,05,06,07,08,09,10,11,12,1.0,1.0,1.0*30
$GPRMC,054154.387,A,5007.217,N,00844.096,E,038.9,236.6,081025,000.0,W*7B
$GPGGA,054155.387,5007.211,N,00844.082,E,1,12,1.0,0.0,M,0.0,M,,*60
$GPGSA,A,3,01,02,03,04,05,06,07,08,09,10,11,12,1.0,1.0,1.0*30
$GPRMC,054155.387,A,5007.211,N,00844.082,E,038.9,236.6,081025,000.0,W*79
$GPGGA,054156.387,5007.205,N,00844.068,E,1,12,1.0,0.0,M,0.0,M,,*62
$GPGSA,A,3,01,02,03,04,05,06,07,08,09,10,11,12,1.0,1.0,1.0*30
$GPRMC,054156.387,A,5007.205,N,00844.068,E,038.9,236.6,081025,000.0,W*7B
$GPGGA,054157.387,5007.199,N,00844.054,E,1,12,1.0,0.0,M,0.0,M,,*6A
$GPGSA,A,3,01,02,03,04,05,06,07,08,09,10,11,12,1.0,1.0,1.0*30
$GPRMC,054157.387,A,5007.199,N,00844.054,E,038.9,236.6,081025,000.0,W*73
$GPGGA,054158.387,5007.193,N,00844.040,E,1,12,1.0,0.0,M,0.0,M,,*6A
$GPGSA,A,3,01,02,03,04,05,06,07,08,09,10,11,12,1.0,1.0,1.0*30
$GPRMC,054158.387,A,5007.193,N,00844.040,E,038.9,236.6,081025,000.0,W*73
$GPGGA,054159.387,5007.187,N,00844.026,E,1,12,1.0,0.0,M,0.0,M,,*6E
$GPGSA,A,3,01,02,03,04,05,06,07,08,09,10,11,12,1.0,1.0,1.0*30
$GPRMC,054159.387,A,5007.187,N,00844.026,E,038.9,236.6,081025,000.0,W*77
$GPGGA,054200.387,5007.181,N,00844.012,E,1,12,1.0,0.0,M,0.0,M,,*60
$GPGSA,A,3,01,02,03,04,05,06,07,08,09,10,11,12,1.0,1.0,1.0*30
$GPRMC,054200.387,A,5007.181,N,00844.012,E,038.9,236.6,081025,000.0,W*79
$GPGGA,054201.387,5007.175,N,00843.997,E,1,12,1.0,0.0,M,0.0,M,,*69
$GPGSA,A,3,01,02,03,04,05,06,07,08,09,10,11,12,1.0,1.0,1.0*30
$GPRMC,054201.387,A,5007.175,N,00843.997,E,038.9,236.6,081025,000.0,W*70
$GPGGA,054202.387,5007.169,N,00843.983,E,1,12,1.0,0.0,M,0.0,M,,*62
$GPGSA,A,3,01,02,03,04,05,06,07,08,09,10,11,12,1.0,1.0,1.0*30
$GPRMC,054202.387,A,5007.169,N,00843.983,E,038.9,236.6,081025,000.0,W*7B
$GPGGA,054203.387,5007.163,N,00843.969,E,1,12,1.0,0.0,M,0.0,M,,*6D
$GPGSA,A,3,01,02,03,04,05,06,07,08,09,10,11,12,1.0,1.0,1.0*30
$GPRMC,054203.387,A,5007.163,N,00843.969,E,038.9,214.5,081025,000.0,W*77
$GPGGA,054204.387,5007.154,N,00843.960,E,1,12,1.0,0.0,M,0.0,M,,*67
$GPGSA,A,3,01,02,03,04,05,06,07,08,09,10,11,12,1.0,1.0,1.0*30
$GPRMC,054204.387,A,5007.154,N,00843.960,E,038.9,214.5,081025,000.0,W*7D
$GPGGA,054205.387,5007.145,N,00843.950,E,1,12,1.0,0.0,M,0.0,M,,*65
$GPGSA,A,3,01,02,03,04,05,06,07,08,09,10,11,12,1.0,1.0,1.0*30
$GPRMC,054205.387,A,5007.145,N,00843.950,E,038.9,214.5,081025,000.0,W*7F
$GPGGA,054206.387,5007.136,N,00843.941,E,1,12,1.0,0.0,M,0.0,M,,*62
$GPGSA,A,3,01,02,03,04,05,06,07,08,09,10,11,12,1.0,1.0,1.0*30
$GPRMC,054206.387,A,5007.136,N,00843.941,E,038.9,214.5,081025,000.0,W*78
$GPGGA,054207.387,5007.127,N,00843.931,E,1,12,1.0,0.0,M,0.0,M,,*64
$GPGSA,A,3,01,02,03,04,05,06,07,08,09,10,11,12,1.0,1.0,1.0*30
$GPRMC,054207.387,A,5007.127,N,00843.931,E,038.9,214.5,081025,000.0,W*7E
$GPGGA,054208.387,5007.119,N,00843.922,E,1,12,1.0,0.0,M,0.0,M,,*64
$GPGSA,A,3,01,02,03,04,05,06,07,08,09,10,11,12,1.0,1.0,1.0*30
$GPRMC,054208.387,A,5007.119,N,00843.922,E,038.9,214.5,081025,000.0,W*7E
$GPGGA,054209.387,5007.110,N,00843.912,E,1,12,1.0,0.0,M,0.0,M,,*6F
$GPGSA,A,3,01,02,03,04,05,06,07,08,09,10,11,12,1.0,1.0,1.0*30
$GPRMC,054209.387,A,5007.110,N,00843.912,E,038.9,214.5,081025,000.0,W*75
$GPGGA,054210.387,5007.101,N,00843.903,E,1,12,1.0,0.0,M,0.0,M,,*67
$GPGSA,A,3,01,02,03,04,05,06,07,08,09,10,11,12,1.0,1.0,1.0*30
$GPRMC,054210.387,A,5007.101,N,00843.903,E,038.9,165.0,081025,000.0,W*7D
$GPGGA,054211.387,5007.090,N,00843.907,E,1,12,1.0,0.0,M,0.0,M,,*6B
$GPGSA,A,3,01,02,03,04,05,06,07,08,09,10,11,12,1.0,1.0,1.0*30
$GPRMC,054211.387,A,5007.090,N,00843.907,E,038.9,165.0,081025,000.0,W*71
$GPGGA,054212.387,5007.080,N,00843.911,E,1,12,1.0,0.0,M,0.0,M,,*6E
$GPGSA,A,3,01,02,03,04,05,06,07,08,09,10,11,12,1.0,1.0,1.0*30
$GPRMC,054212.387,A,5007.080,N,00843.911,E,038.9,165.0,081025,000.0,W*74
$GPGGA,054213.387,5007.070,N,00843.916,E,1,12,1.0,0.0,M,0.0,M,,*67
$GPGSA,A,3,01,02,03,04,05,06,07,08,09,10,11,12,1.0,1.0,1.0*30
$GPRMC,054213.387,A,5007.070,N,00843.916,E,038.9,165.0,081025,000.0,W*7D
$GPGGA,054214.387,5007.059,N,00843.920,E,1,12,1.0,0.0,M,0.0,M,,*6E
$GPGSA,A,3,01,02,03,04,05,06,07,08,09,10,11,12,1.0,1.0,1.0*30
$GPRMC,054214.387,A,5007.059,N,00843.920,E,038.9,165.0,081025,000.0,W*74
$GPGGA,054215.387,5007.049,N,00843.924,E,1,12,1.0,0.0,M,0.0,M,,*6A
$GPGSA,A,3,01,02,03,04,05,06,07,08,09,10,11,12,1.0,1.0,1.0*30
$GPRMC,054215.387,A,5007.049,N,00843.924,E,038.9,165.0,081025,000.0,W*70
$GPGGA,054216.387,5007.038,N,00843.929,E,1,12,1.0,0.0,M,0.0,M,,*62
$GPGSA,A,3,01,02,03,04,05,06,07,08,09,10,11,12,1.0,1.0,1.0*30
$GPRMC,054216.387,A,5007.038,N,00843.929,E,038.9,165.0,081025,000.0,W*78
$GPGGA,054217.387,5007.028,N,00843.933,E,1,12,1.0,0.0,M,0.0,M,,*69
$GPGSA,A,3,01,02,03,04,05,06,07,08,09,10,11,12,1.0,1.0,1.0*30
$GPRMC,054217.387,A,5007.028,N,00843.933,E,038.9,165.0,081025,000.0,W*73
$GPGGA,054218.387,5007.017,N,00843.937,E,1,12,1.0,0.0,M,0.0,M,,*6E
$GPGSA,A,3,01,02,03,04,05,06,07,08,09,10,11,12,1.0,1.0,1.0*30
$GPRMC,054218.387,A,5007.017,N,00843.937,E,038.9,165.0,081025,000.0,W*74
$GPGGA,054219.387,5007.007,N,00843.942,E,1,12,1.0,0.0,M,0.0,M,,*6C
$GPGSA,A,3,01,02,03,04,05,06,07,08,09,10,11,12,1.0,1.0,1.0*30
$GPRMC,054219.387,A,5007.007,N,00843.942,E,038.9,165.0,081025,000.0,W*76
$GPGGA,054220.387,5006.997,N,00843.946,E,1,12,1.0,0.0,M,0.0,M,,*63
$GPGSA,A,3,01,02,03,04,05,06,07,08,09,10,11,12,1.0,1.0,1.0*30
$GPRMC,054220.387,A,5006.997,N,00843.946,E,038.9,165.0,081025,000.0,W*79
$GPGGA,054221.387,5006.986,N,00843.951,E,1,12,1.0,0.0,M,0.0,M,,*64
$GPGSA,A,3,01,02,03,04,05,06,07,08,09,10,11,12,1.0,1.0,1.0*30
$GPRMC,054221.387,A,5006.986,N,00843.951,E,038.9,165.0,081025,000.0,W*7E
$GPGGA,054222.387,5006.976,N,00843.955,E,1,12,1.0,0.0,M,0.0,M,,*6C
$GPGSA,A,3,01,02,03,04,05,06,07,08,09,10,11,12,1.0,1.0,1.0*30
$GPRMC,054222.387,A,5006.976,N,00843.955,E,038.9,165.0,081025,000.0,W*76
$GPGGA,054223.387,5006.965,N,00843.959,E,1,12,1.0,0.0,M,0.0,M,,*63
$GPGSA,A,3,01,02,03,04,05,06,07,08,09,10,11,12,1.0,1.0,1.0*30
$GPRMC,054223.387,A,5006.965,N,00843.959,E,038.9,165.0,081025,000.0,W*79
$GPGGA,054224.387,5006.955,N,00843.964,E,1,12,1.0,0.0,M,0.0,M,,*69
$GPGSA,A,3,01,02,03,04,05,06,07,08,09,10,11,12,1.0,1.0,1.0*30
$GPRMC,054224.387,A,5006.955,N,00843.964,E,038.9,165.0,081025,000.0,W*73
$GPGGA,054225.387,5006.944,N,00843.968,E,1,12,1.0,0.0,M,0.0,M,,*64
$GPGSA,A,3,01,02,03,04,05,06,07,08,09,10,11,12,1.0,1.0,1.0*30
$GPRMC,054225.387,A,5006.944,N,00843.968,E,038.9,165.0,081025,000.0,W*7E
$GPGGA,054226.387,5006.934,N,00843.972,E,1,12,1.0,0.0,M,0.0,M,,*6B
$GPGSA,A,3,01,02,03,04,05,06,07,08,09,10,11,12,1.0,1.0,1.0*30
$GPRMC,054226.387,A,5006.934,N,00843.972,E,038.9,165.0,081025,000.0,W*71
$GPGGA,054227.387,5006.924,N,00843.977,E,1,12,1.0,0.0,M,0.0,M,,*6E
$GPGSA,A,3,01,02,03,04,05,06,07,08,09,10,11,12,1.0,1.0,1.0*30
$GPRMC,054227.387,A,5006.924,N,00843.977,E,038.9,165.0,081025,000.0,W*74
$GPGGA,054228.387,5006.913,N,00843.981,E,1,12,1.0,0.0,M,0.0,M,,*6C
$GPGSA,A,3,01,02,03,04,05,06,07,08,09,10,11,12,1.0,1.0,1.0*30
$GPRMC,054228.387,A,5006.913,N,00843.981,E,038.9,159.9,081025,000.0,W*70
$GPGGA,054229.387,5006.903,N,00843.987,E,1,12,1.0,0.0,M,0.0,M,,*6A
$GPGSA,A,3,01,02,03,04,05,06,07,08,09,10,11,12,1.0,1.0,1.0*30
$GPRMC,054229.387,A,5006.903,N,00843.987,E,038.9,159.9,081025,000.0,W*76
$GPGGA,054230.387,5006.893,N,00843.993,E,1,12,1.0,0.0,M,0.0,M,,*6F
$GPGSA,A,3,01,02,03,04,05,06,07,08,09,10,11,12,1.0,1.0,1.0*30
$GPRMC,054230.387,A,5006.893,N,00843.993,E,038.9,159.9,081025,000.0,W*73
$GPGGA,054231.387,5006.883,N,00843.998,E,1,12,1.0,0.0,M,0.0,M,,*64
$GPGSA,A,3,01,02,03,04,05,06,07,08,09,10,11,12,1.0,1.0,1.0*30
$GPRMC,054231.387,A,5006.883,N,00843.998,E,038.9,159.9,081025,000.0,W*78
$GPGGA,054232.387,5006.873,N,00844.004,E,1,12,1.0,0.0,M,0.0,M,,*63
$GPGSA,A,3,01,02,03,04,05,06,07,08,09,10,11,12,1.0,1.0,1.0*30
$GPRMC,054232.387,A,5006.873,N,00844.004,E,038.9,159.9,081025,000.0,W*7F
$GPGGA,054233.387,5006.863,N,00844.010,E,1,12,1.0,0.0,M,0.0,M,,*66
$GPGSA,A,3,01,02,03,04,05,06,07,08,09,10,11,12,1.0,1.0,1.0*30
$GPRMC,054233.387,A,5006.863,N,00844.010,E,038.9,159.9,081025,000.0,W*7A
$GPGGA,054234.387,5006.852,N,00844.016,E,1,12,1.0,0.0,M,0.0,M,,*65
$GPGSA,A,3,01,02,03,04,05,06,07,08,09,10,11,12,1.0,1.0,1.0*30
$GPRMC,054234.387,A,5006.852,N,00844.016,E,038.9,159.9,081025,000.0,W*79
$GPGGA,054235.387,5006.842,N,00844.021,E,1,12,1.0,0.0,M,0.0,M,,*61
$GPGSA,A,3,01,02,03,04,05,06,07,08,09,10,11,12,1.0,1.0,1.0*30
$GPRMC,054235.387,A,5006.842,N,00844.021,E,038.9,159.9,081025,000.0,W*7D
$GPGGA,054236.387,5006.832,N,00844.027,E,1,12,1.0,0.0,M,0.0,M,,*63
$GPGSA,A,3,01,02,03,04,05,06,07,08,09,10,11,12,1.0,1.0,1.0*30
$GPRMC,054236.387,A,5006.832,N,00844.027,E,038.9,159.9,081025,000.0,W*7F
$GPGGA,054237.387,5006.822,N,00844.033,E,1,12,1.0,0.0,M,0.0,M,,*66
$GPGSA,A,3,01,02,03,04,05,06,07,08,09,10,11,12,1.0,1.0,1.0*30
$GPRMC,054237.387,A,5006.822,N,00844.033,E,038.9,159.9,081025,000.0,W*7A
$GPGGA,054238.387,5006.812,N,00844.039,E,1,12,1.0,0.0,M,0.0,M,,*60
$GPGSA,A,3,01,02,03,04,05,06,07,08,09,10,11,12,1.0,1.0,1.0*30
$GPRMC,054238.387,A,5006.812,N,00844.039,E,038.9,159.9,081025,000.0,W*7C
$GPGGA,054239.387,5006.802,N,00844.045,E,1,12,1.0,0.0,M,0.0,M,,*6B
$GPGSA,A,3,01,02,03,04,05,06,07,08,09,10,11,12,1.0,1.0,1.0*30
$GPRMC,054239.387,A,5006.802,N,00844.045,E,038.9,159.9,081025,000.0,W*77
$GPGGA,054240.387,5006.792,N,00844.050,E,1,12,1.0,0.0,M,0.0,M,,*67
$GPGSA,A,3,01,02,03,04,05,06,07,08,09,10,11,12,1.0,1.0,1.0*30
$GPRMC,054240.387,A,5006.792,N,00844.050,E,038.9,159.9,081025,000.0,W*7B
$GPGGA,054241.387,5006.781,N,00844.056,E,1,12,1.0,0.0,M,0.0,M,,*62
$GPGSA,A,3,01,02,03,04,05,06,07,08,09,10,11,12,1.0,1.0,1.0*30
$GPRMC,054241.387,A,5006.781,N,00844.056,E,038.9,159.9,081025,000.0,W*7E
$GPGGA,054242.387,5006.771,N,00844.062,E,1,12,1.0,0.0,M,0.0,M,,*69
$GPGSA,A,3,01,02,03,04,05,06,07,08,09,10,11,12,1.0,1.0,1.0*30
$GPRMC,054242.387,A,5006.771,N,00844.062,E,038.9,159.9,081025,000.0,W*75
$GPGGA,054243.387,5006.761,N,00844.068,E,1,12,1.0,0.0,M,0.0,M,,*63
$GPGSA,A,3,01,02,03,04,05,06,07,08,09,10,11,12,1.0,1.0,1.0*30
$GPRMC,054243.387,A,5006.761,N,00844.068,E,038.9,159.9,081025,000.0,W*7F
$GPGGA,054244.387,5006.751,N,00844.074,E,1,12,1.0,0.0,M,0.0,M,,*6A
$GPGSA,A,3,01,02,03,04,05,06,07,08,09,10,11,12,1.0,1.0,1.0*30
$GPRMC,054244.387,A,5006.751,N,00844.074,E,038.9,159.9,081025,000.0,W*76
$GPGGA,054245.387,5006.741,N,00844.079,E,1,12,1.0,0.0,M,0.0,M,,*67
$GPGSA,A,3,01,02,03,04,05,06,07,08,09,10,11,12,1.0,1.0,1.0*30
$GPRMC,054245.387,A,5006.741,N,00844.079,E,038.9,159.9,081025,000.0,W*7B
$GPGGA,054246.387,5006.731,N,00844.085,E,1,12,1.0,0.0,M,0.0,M,,*60
$GPGSA,A,3,01,02,03,04,05,06,07,08,09,10,11,12,1.0,1.0,1.0*30
$GPRMC,054246.387,A,5006.731,N,00844.085,E,038.9,159.9,081025,000.0,W*7C
$GPGGA,054247.387,5006.721,N,00844.091,E,1,12,1.0,0.0,M,0.0,M,,*65
$GPGSA,A,3,01,02,03,04,05,06,07,08,09,10,11,12,1.0,1.0,1.0*30
$GPRMC,054247.387,A,5006.721,N,00844.091,E,038.9,159.9,081025,000.0,W*79
$GPGGA,054248.387,5006.710,N,00844.097,E,1,12,1.0,0.0,M,0.0,M,,*6E
$GPGSA,A,3,01,02,03,04,05,06,07,08,09,10,11,12,1.0,1.0,1.0*30
$GPRMC,054248.387,A,5006.710,N,00844.097,E,038.9,153.1,081025,000.0,W*70
$GPGGA,054249.387,5006.701,N,00844.104,E,1,12,1.0,0.0,M,0.0,M,,*64
$GPGSA,A,3,01,02,03,04,05,06,07,08,09,10,11,12,1.0,1.0,1.0*30
$GPRMC,054249.387,A,5006.701,N,00844.104,E,038.9,153.1,081025,000.0,W*7A
$GPGGA,054250.387,5006.691,N,00844.112,E,1,12,1.0,0.0,M,0.0,M,,*63
$GPGSA,A,3,01,02,03,04,05,06,07,08,09,10,11,12,1.0,1.0,1.0*30
$GPRMC,054250.387,A,5006.691,N,00844.112,E,038.9,153.1,081025,000.0,W*7D
$GPGGA,054251.387,5006.682,N,00844.119,E,1,12,1.0,0.0,M,0.0,M,,*6B
$GPGSA,A,3,01,02,03,04,05,06,07,08,09,10,11,12,1.0,1.0,1.0*30
$GPRMC,054251.387,A,5006.682,N,00844.119,E,038.9,153.1,081025,000.0,W*75
$GPGGA,054252.387,5006.672,N,00844.127,E,1,12,1.0,0.0,M,0.0,M,,*6A
$GPGSA,A,3,01,02,03,04,05,06,07,08,09,10,11,12,1.0,1.0,1.0*30
$GPRMC,054252.387,A,5006.672,N,00844.127,E,038.9,153.1,081025,000.0,W*74
$GPGGA,054253.387,5006.662,N,00844.135,E,1,12,1.0,0.0,M,0.0,M,,*69
$GPGSA,A,3,01,02,03,04,05,06,07,08,09,10,11,12,1.0,1.0,1.0*30
$GPRMC,054253.387,A,5006.662,N,00844.135,E,038.9,153.1,081025,000.0,W*77
$GPGGA,054254.387,5006.653,N,00844.142,E,1,12,1.0,0.0,M,0.0,M,,*6C
$GPGSA,A,3,01,02,03,04,05,06,07,08,09,10,11,12,1.0,1.0,1.0*30
$GPRMC,054254.387,A,5006.653,N,00844.142,E,038.9,153.1,081025,000.0,W*72
$GPGGA,054255.387,5006.643,N,00844.150,E,1,12,1.0,0.0,M,0.0,M,,*6F
$GPGSA,A,3,01,02,03,04,05,06,07,08,09,10,11,12,1.0,1.0,1.0*30
$GPRMC,054255.387,A,5006.643,N,00844.150,E,038.9,153.1,081025,000.0,W*71
$GPGGA,054256.387,5006.633,N,00844.157,E,1,12,1.0,0.0,M,0.0,M,,*6C
$GPGSA,A,3,01,02,03,04,05,06,07,08,09,10,11,12,1.0,1.0,1.0*30
$GPRMC,054256.387,A,5006.633,N,00844.157,E,038.9,153.1,081025,000.0,W*72
$GPGGA,054257.387,5006.624,N,00844.165,E,1,12,1.0,0.0,M,0.0,M,,*6A
$GPGSA,A,3,01,02,03,04,05,06,07,08,09,10,11,12,1.0,1.0,1.0*30
$GPRMC,054257.387,A,5006.624,N,00844.165,E,038.9,153.1,081025,000.0,W*74
$GPGGA,054258.387,5006.614,N,00844.173,E,1,12,1.0,0.0,M,0.0,M,,*61
$GPGSA,A,3,01,02,03,04,05,06,07,08,09,10,11,12,1.0,1.0,1.0*30
$GPRMC,054258.387,A,5006.614,N,00844.173,E,038.9,153.1,081025,000.0,W*7F
$GPGGA,054259.387,5006.605,N,00844.180,E,1,12,1.0,0.0,M,0.0,M,,*6C
$GPGSA,A,3,01,02,03,04,05,06,07,08,09,10,11,12,1.0,1.0,1.0*30
$GPRMC,054259.387,A,5006.605,N,00844.180,E,038.9,153.1,081025,000.0,W*72
$GPGGA,054300.387,5006.595,N,00844.188,E,1,12,1.0,0.0,M,0.0,M,,*63
$GPGSA,A,3,01,02,03,04,05,06,07,08,09,10,11,12,1.0,1.0,1.0*30
$GPRMC,054300.387,A,5006.595,N,00844.188,E,038.9,153.1,081025,000.0,W*7D
$GPGGA,054301.387,5006.585,N,00844.195,E,1,12,1.0,0.0,M,0.0,M,,*6F
$GPGSA,A,3,01,02,03,04,05,06,07,08,09,10,11,12,1.0,1.0,1.0*30
$GPRMC,054301.387,A,5006.585,N,00844.195,E,038.9,153.1,081025,000.0,W*71
$GPGGA,054302.387,5006.576,N,00844.203,E,1,12,1.0,0.0,M,0.0,M,,*6C
$GPGSA,A,3,01,02,03,04,05,06,07,08,09,10,11,12,1.0,1.0,1.0*30
$GPRMC,054302.387,A,5006.576,N,00844.203,E,038.9,153.1,081025,000.0,W*72
$GPGGA,054303.387,5006.566,N,00844.211,E,1,12,1.0,0.0,M,0.0,M,,*6F
$GPGSA,A,3,01,02,03,04,05,06,07,08,09,10,11,12,1.0,1.0,1.0*30
$GPRMC,054303.387,A,5006.566,N,00844.211,E,038.9,153.1,081025,000.0,W*71
$GPGGA,054304.387,5006.556,N,00844.218,E,1,12,1.0,0.0,M,0.0,M,,*62
$GPGSA,A,3,01,02,03,04,05,06,07,08,09,10,11,12,1.0,1.0,1.0*30
$GPRMC,054304.387,A,5006.556,N,00844.218,E,038.9,153.1,081025,000.0,W*7C
$GPGGA,054305.387,5006.547,N,00844.226,E,1,12,1.0,0.0,M,0.0,M,,*6E
$GPGSA,A,3,01,02,03,04,05,06,07,08,09,10,11,12,1.0,1.0,1.0*30
$GPRMC,054305.387,A,5006.547,N,00844.226,E,038.9,153.1,081025,000.0,W*70
$GPGGA,054306.387,5006.537,N,00844.234,E,1,12,1.0,0.0,M,0.0,M,,*69
$GPGSA,A,3,01,02,03,04,05,06,07,08,09,10,11,12,1.0,1.0,1.0*30
$GPRMC,054306.387,A,5006.537,N,00844.234,E,038.9,153.1,081025,000.0,W*77
$GPGGA,054307.387,5006.528,N,00844.241,E,1,12,1.0,0.0,M,0.0,M,,*64
$GPGSA,A,3,01,02,03,04,05,06,07,08,09,10,11,12,1.0,1.0,1.0*30
$GPRMC,054307.387,A,5006.528,N,00844.241,E,038.9,153.1,081025,000.0,W*7A
$GPGGA,054308.387,5006.518,N,00844.249,E,1,12,1.0,0.0,M,0.0,M,,*60
$GPGSA,A,3,01,02,03,04,05,06,07,08,09,10,11,12,1.0,1.0,1.0*30
$GPRMC,054308.387,A,5006.518,N,00844.249,E,038.9,162.6,081025,000.0,W*7B
$GPGGA,054309.387,5006.508,N,00844.254,E,1,12,1.0,0.0,M,0.0,M,,*6C
$GPGSA,A,3,01,02,03,04,05,06,07,08,09,10,11,12,1.0,1.0,1.0*30
$GPRMC,054309.387,A,5006.508,N,00844.254,E,038.9,162.6,081025,000.0,W*77
$GPGGA,054310.387,5006.497,N,00844.259,E,1,12,1.0,0.0,M,0.0,M,,*6E
$GPGSA,A,3,01,02,03,04,05,06,07,08,09,10,11,12,1.0,1.0,1.0*30
$GPRMC,054310.387,A,5006.497,N,00844.259,E,038.9,162.6,081025,000.0,W*75
$GPGGA,054311.387,5006.487,N,00844.264,E,1,12,1.0,0.0,M,0.0,M,,*60
$GPGSA,A,3,01,02,03,04,05,06,07,08,09,10,11,12,1.0,1.0,1.0*30
$GPRMC,054311.387,A,5006.487,N,00844.264,E,038.9,162.6,081025,000.0,W*7B
$GPGGA,054312.387,5006.477,N,00844.269,E,1,12,1.0,0.0,M,0.0,M,,*61
$GPGSA,A,3,01,02,03,04,05,06,07,08,09,10,11,12,1.0,1.0,1.0*30
$GPRMC,054312.387,A,5006.477,N,00844.269,E,038.9,162.6,081025,000.0,W*7A
$GPGGA,054313.387,5006.466,N,00844.274,E,1,12,1.0,0.0,M,0.0,M,,*6C
$GPGSA,A,3,01,02,03,04,05,06,07,08,09,10,11,12,1.0,1.0,1.0*30
$GPRMC,054313.387,A,5006.466,N,00844.274,E,038.9,162.6,081025,000.0,W*77
$GPGGA,054314.387,5006.456,N,00844.279,E,1,12,1.0,0.0,M,0.0,M,,*65
$GPGSA,A,3,01,02,03,04,05,06,07,08,09,10,11,12,1.0,1.0,1.0*30
$GPRMC,054314.387,A,5006.456,N,00844.279,E,038.9,162.6,081025,000.0,W*7E
$GPGGA,054315.387,5006.446,N,00844.284,E,1,12,1.0,0.0,M,0.0,M,,*67
$GPGSA,A,3,01,02,03,04,05,06,07,08,09,10,11,12,1.0,1.0,1.0*30
$GPRMC,054315.387,A,5006.446,N,00844.284,E,038.9,162.6,081025,000.0,W*7C
$GPGGA,054316.387,5006.436,N,00844.289,E,1,12,1.0,0.0,M,0.0,M,,*6E
$GPGSA,A,3,01,02,03,04,05,06,07,08,09,10,11,12,1.0,1.0,1.0*30
$GPRMC,054316.387,A,5006.436,N,00844.289,E,038.9,162.6,081025,000.0,W*75
$GPGGA,054317.387,5006.425,N,00844.294,E,1,12,1.0,0.0,M,0.0,M,,*61
$GPGSA,A,3,01,02,03,04,05,06,07,08,09,10,11,12,1.0,1.0,1.0*30
$GPRMC,054317.387,A,5006.425,N,00844.294,E,038.9,162.6,081025,000.0,W*7A
$GPGGA,054318.387,5006.415,N,00844.299,E,1,12,1.0,0.0,M,0.0,M,,*60
$GPGSA,A,3,01,02,03,04,05,06,07,08,09,10,11,12,1.0,1.0,1.0*30
$GPRMC,054318.387,A,5006.415,N,00844.299,E,038.9,162.6,081025,000.0,W*7B
$GPGGA,054319.387,5006.405,N,00844.304,E,1,12,1.0,0.0,M,0.0,M,,*65
$GPGSA,A,3,01,02,03,04,05,06,07,08,09,10,11,12,1.0,1.0,1.0*30
$GPRMC,054319.387,A,5006.405,N,00844.304,E,038.9,162.6,081025,000.0,W*7E
$GPGGA,054320.387,5006.394,N,00844.309,E,1,12,1.0,0.0,M,0.0,M,,*6D
$GPGSA,A,3,01,02,03,04,05,06,07,08,09,10,11,12,1.0,1.0,1.0*30
$GPRMC,054320.387,A,5006.394,N,00844.309,E,038.9,176.3,081025,000.0,W*76
$GPGGA,054321.387,5006.384,N,00844.310,E,1,12,1.0,0.0,M,0.0,M,,*65
$GPGSA,A,3,01,02,03,04,05,06,07,08,09,10,11,12,1.0,1.0,1.0*30
$GPRMC,054321.387,A,5006.384,N,00844.310,E,038.9,176.3,081025,000.0,W*7E
$GPGGA,054322.387,5006.373,N,00844.311,E,1,12,1.0,0.0,M,0.0,M,,*6F
$GPGSA,A,3,01,02,03,04,05,06,07,08,09,10,11,12,1.0,1.0,1.0*30
$GPRMC,054322.387,A,5006.373,N,00844.311,E,038.9,176.3,081025,000.0,W*74
$GPGGA,054323.387,5006.362,N,00844.312,E,1,12,1.0,0.0,M,0.0,M,,*6D
$GPGSA,A,3,01,02,03,04,05,06,07,08,09,10,11,12,1.0,1.0,1.0*30
$GPRMC,054323.387,A,5006.362,N,00844.312,E,038.9,176.3,081025,000.0,W*76
$GPGGA,054324.387,5006.351,N,00844.313,E,1,12,1.0,0.0,M,0.0,M,,*6B
$GPGSA,A,3,01,02,03,04,05,06,07,08,09,10,11,12,1.0,1.0,1.0*30
$GPRMC,054324.387,A,5006.351,N,00844.313,E,038.9,176.3,081025,000.0,W*70
$GPGGA,054325.387,5006.340,N,00844.314,E,1,12,1.0,0.0,M,0.0,M,,*6D
$GPGSA,A,3,01,02,03,04,05,06,07,08,09,10,11,12,1.0,1.0,1.0*30
$GPRMC,054325.387,A,5006.340,N,00844.314,E,038.9,176.3,081025,000.0,W*76
$GPGGA,054326.387,5006.330,N,00844.315,E,1,12,1.0,0.0,M,0.0,M,,*68
$GPGSA,A,3,01,02,03,04,05,06,07,08,09,10,11,12,1.0,1.0,1.0*30
$GPRMC,054326.387,A,5006.330,N,00844.315,E,038.9,176.3,081025,000.0,W*73
$GPGGA,054327.387,5006.319,N,00844.317,E,1,12,1.0,0.0,M,0.0,M,,*60
$GPGSA,A,3,01,02,03,04,05,06,07,08,09,10,11,12,1.0,1.0,1.0*30
$GPRMC,054327.387,A,5006.319,N,00844.317,E,038.9,176.3,081025,000.0,W*7B
$GPGGA,054328.387,5006.308,N,00844.318,E,1,12,1.0,0.0,M,0.0,M,,*60
$GPGSA,A,3,01,02,03,04,05,06,07,08,09,10,11,12,1.0,1.0,1.0*30
$GPRMC,054328.387,A,5006.308,N,00844.318,E,038.9,176.3,081025,000.0,W*7B
$GPGGA,054329.387,5006.297,N,00844.319,E,1,12,1.0,0.0,M,0.0,M,,*67
$GPGSA,A,3,01,02,03,04,05,06,07,08,09,10,11,12,1.0,1.0,1.0*30
$GPRMC,054329.387,A,5006.297,N,00844.319,E,038.9,176.3,081025,000.0,W*7C
$GPGGA,054330.387,5006.287,N,00844.320,E,1,12,1.0,0.0,M,0.0,M,,*64
$GPGSA,A,3,01,02,03,04,05,06,07,08,09,10,11,12,1.0,1.0,1.0*30
$GPRMC,054330.387,A,5006.287,N,00844.320,E,038.9,176.3,081025,000.0,W*7F
$GPGGA,054331.387,5006.276,N,00844.321,E,1,12,1.0,0.0,M,0.0,M,,*6A
$GPGSA,A,3,01,02,03,04,05,06,07,08,09,10,11,12,1.0,1.0,1.0*30
$GPRMC,054331.387,A,5006.276,N,00844.321,E,038.9,176.3,081025,000.0,W*71
$GPGGA,054332.387,5006.265,N,00844.322,E,1,12,1.0,0.0,M,0.0,M,,*68
$GPGSA,A,3,01,02,03,04,05,06,07,08,09,10,11,12,1.0,1.0,1.0*30
$GPRMC,054332.387,A,5006.265,N,00844.322,E,038.9,176.3,081025,000.0,W*73
$GPGGA,054333.387,5006.254,N,00844.323,E,1,12,1.0,0.0,M,0.0,M,,*6A
$GPGSA,A,3,01,02,03,04,05,06,07,08,09,10,11,12,1.0,1.0,1.0*30
$GPRMC,054333.387,A,5006.254,N,00844.323,E,038.9,176.3,081025,000.0,W*71
$GPGGA,054334.387,5006.244,N,00844.324,E,1,12,1.0,0.0,M,0.0,M,,*6B
$GPGSA,A,3,01,02,03,04,05,06,07,08,09,10,11,12,1.0,1.0,1.0*30
$GPRMC,054334.387,A,5006.244,N,00844.324,E,038.9,176.3,081025,000.0,W*70
$GPGGA,054335.387,5006.233,N,00844.325,E,1,12,1.0,0.0,M,0.0,M,,*6B
$GPGSA,A,3,01,02,03,04,05,06,07,08,09,10,11,12,1.0,1.0,1.0*30
$GPRMC,054335.387,A,5006.233,N,00844.325,E,038.9,176.3,081025,000.0,W*70
$GPGGA,054336.387,5006.222,N,00844.326,E,1,12,1.0,0.0,M,0.0,M,,*6B
$GPGSA,A,3,01,02,03,04,05,06,07,08,09,10,11,12,1.0,1.0,1.0*30
$GPRMC,054336.387,A,5006.222,N,00844.326,E,038.9,176.3,081025,000.0,W*70
$GPGGA,054337.387,5006.211,N,00844.327,E,1,12,1.0,0.0,M,0.0,M,,*6B
$GPGSA,A,3,01,02,03,04,05,06,07,08,09,10,11,12,1.0,1.0,1.0*30
$GPRMC,054337.387,A,5006.211,N,00844.327,E,038.9,176.3,081025,000.0,W*70
$GPGGA,054338.387,5006.200,N,00844.328,E,1,12,1.0,0.0,M,0.0,M,,*6B
$GPGSA,A,3,01,02,03,04,05,06,07,08,09,10,11,12,1.0,1.0,1.0*30
$GPRMC,054338.387,A,5006.200,N,00844.328,E,038.9,176.3,081025,000.0,W*70
$GPGGA,054339.387,5006.190,N,00844.329,E,1,12,1.0,0.0,M,0.0,M,,*61
$GPGSA,A,3,01,02,03,04,05,06,07,08,09,10,11,12,1.0,1.0,1.0*30
$GPRMC,054339.387,A,5006.190,N,00844.329,E,038.9,176.3,081025,000.0,W*7A
$GPGGA,054340.387,5006.179,N,00844.331,E,1,12,1.0,0.0,M,0.0,M,,*61
$GPGSA,A,3,01,02,03,04,05,06,07,08,09,10,11,12,1.0,1.0,1.0*30
$GPRMC,054340.387,A,5006.179,N,00844.331,E,038.9,166.6,081025,000.0,W*7E
$GPGGA,054341.387,5006.168,N,00844.334,E,1,12,1.0,0.0,M,0.0,M,,*65
$GPGSA,A,3,01,02,03,04,05,06,07,08,09,10,11,12,1.0,1.0,1.0*30
$GPRMC,054341.387,A,5006.168,N,00844.334,E,038.9,166.6,081025,000.0,W*7A
$GPGGA,054342.387,5006.158,N,00844.338,E,1,12,1.0,0.0,M,0.0,M,,*69
$GPGSA,A,3,01,02,03,04,05,06,07,08,09,10,11,12,1.0,1.0,1.0*30
$GPRMC,054342.387,A,5006.158,N,00844.338,E,038.9,166.6,081025,000.0,W*76
$GPGGA,054343.387,5006.147,N,00844.342,E,1,12,1.0,0.0,M,0.0,M,,*6B
$GPGSA,A,3,01,02,03,04,05,06,07,08,09,10,11,12,1.0,1.0,1.0*30
$GPRMC,054343.387,A,5006.147,N,00844.342,E,038.9,166.6,081025,000.0,W*74
$GPGGA,054344.387,5006.137,N,00844.346,E,1,12,1.0,0.0,M,0.0,M,,*6F
$GPGSA,A,3,01,02,03,04,05,06,07,08,09,10,11,12,1.0,1.0,1.0*30
$GPRMC,054344.387,A,5006.137,N,00844.346,E,038.9,166.6,081025,000.0,W*70
$GPGGA,054345.387,5006.126,N,00844.350,E,1,12,1.0,0.0,M,0.0,M,,*69
$GPGSA,A,3,01,02,03,04,05,06,07,08,09,10,11,12,1.0,1.0,1.0*30
$GPRMC,054345.387,A,5006.126,N,00844.350,E,038.9,166.6,081025,000.0,W*76
$GPGGA,054346.387,5006.116,N,00844.354,E,1,12,1.0,0.0,M,0.0,M,,*6D
$GPGSA,A,3,01,02,03,04,05,06,07,08,09,10,11,12,1.0,1.0,1.0*30
$GPRMC,054346.387,A,5006.116,N,00844.354,E,038.9,166.6,081025,000.0,W*72
$GPGGA,054347.387,5006.105,N,00844.358,E,1,12,1.0,0.0,M,0.0,M,,*62
$GPGSA,A,3,01,02,03,04,05,06,07,08,09,10,11,12,1.0,1.0,1.0*30
$GPRMC,054347.387,A,5006.105,N,00844.358,E,038.9,166.6,081025,000.0,W*7D
$GPGGA,054348.387,5006.095,N,00844.362,E,1,12,1.0,0.0,M,0.0,M,,*6C
$GPGSA,A,3,01,02,03,04,05,06,07,08,09,10,11,12,1.0,1.0,1.0*30
$GPRMC,054348.387,A,5006.095,N,00844.362,E,038.9,166.6,081025,000.0,W*73
$GPGGA,054349.387,5006.084,N,00844.366,E,1,12,1.0,0.0,M,0.0,M,,*69
$GPGSA,A,3,01,02,03,04,05,06,07,08,09,10,11,12,1.0,1.0,1.0*30
$GPRMC,054349.387,A,5006.084,N,00844.366,E,038.9,166.6,081025,000.0,W*76
$GPGGA,054350.387,5006.074,N,00844.370,E,1,12,1.0,0.0,M,0.0,M,,*69
$GPGSA,A,3,01,02,03,04,05,06,07,08,09,10,11,12,1.0,1.0,1.0*30
$GPRMC,054350.387,A,5006.074,N,00844.370,E,038.9,166.6,081025,000.0,W*76
$GPGGA,054351.387,5006.063,N,00844.374,E,1,12,1.0,0.0,M,0.0,M,,*6A
$GPGSA,A,3,01,02,03,04,05,06,07,08,09,10,11,12,1.0,1.0,1.0*30
$GPRMC,054351.387,A,5006.063,N,00844.374,E,038.9,166.6,081025,000.0,W*75
$GPGGA,054352.387,5006.053,N,00844.377,E,1,12,1.0,0.0,M,0.0,M,,*69
$GPGSA,A,3,01,02,03,04,05,06,07,08,09,10,11,12,1.0,1.0,1.0*30
$GPRMC,054352.387,A,5006.053,N,00844.377,E,038.9,166.6,081025,000.0,W*76
$GPGGA,054353.387,5006.042,N,00844.381,E,1,12,1.0,0.0,M,0.0,M,,*61
$GPGSA,A,3,01,02,03,04,05,06,07,08,09,10,11,12,1.0,1.0,1.0*30
$GPRMC,054353.387,A,5006.042,N,00844.381,E,038.9,166.6,081025,000.0,W*7E
$GPGGA,054354.387,5006.032,N,00844.385,E,1,12,1.0,0.0,M,0.0,M,,*65
$GPGSA,A,3,01,02,03,04,05,06,07,08,09,10,11,12,1.0,1.0,1.0*30
$GPRMC,054354.387,A,5006.032,N,00844.385,E,038.9,166.6,081025,000.0,W*7A
$GPGGA,054355.387,5006.021,N,00844.389,E,1,12,1.0,0.0,M,0.0,M,,*6A
$GPGSA,A,3,01,02,03,04,05,06,07,08,09,10,11,12,1.0,1.0,1.0*30
$GPRMC,054355.387,A,5006.021,N,00844.389,E,038.9,166.6,081025,000.0,W*75
$GPGGA,054356.387,5006.011,N,00844.393,E,1,12,1.0,0.0,M,0.0,M,,*61
$GPGSA,A,3,01,02,03,04,05,06,07,08,09,10,11,12,1.0,1.0,1.0*30
$GPRMC,054356.387,A,5006.011,N,00844.393,E,038.9,166.6,081025,000.0,W*7E
$GPGGA,054357.387,5006.000,N,00844.397,E,1,12,1.0,0.0,M,0.0,M,,*64
$GPGSA,A,3,01,02,03,04,05,06,07,08,09,10,11,12,1.0,1.0,1.0*30
$GPRMC,054357.387,A,5006.000,N,00844.397,E,038.9,165.8,081025,000.0,W*76
$GPGGA,054358.387,5005.990,N,00844.401,E,1,12,1.0,0.0,M,0.0,M,,*60
$GPGSA,A,3,01,02,03,04,05,06,07,08,09,10,11,12,1.0,1.0,1.0*30
$GPRMC,054358.387,A,5005.990,N,00844.401,E,038.9,165.8,081025,000.0,W*72
$GPGGA,054359.387,5005.980,N,00844.405,E,1,12,1.0,0.0,M,0.0,M,,*64
$GPGSA,A,3,01,02,03,04,05,06,07,08,09,10,11,12,1.0,1.0,1.0*30
$GPRMC,054359.387,A,5005.980,N,00844.405,E,038.9,165.8,081025,000.0,W*76
$GPGGA,054400.387,5005.969,N,00844.409,E,1,12,1.0,0.0,M,0.0,M,,*64
$GPGSA,A,3,01,02,03,04,05,06,07,08,09,10,11,12,1.0,1.0,1.0*30
$GPRMC,054400.387,A,5005.969,N,00844.409,E,038.9,165.8,081025,000.0,W*76
$GPGGA,054401.387,5005.959,N,00844.413,E,1,12,1.0,0.0,M,0.0,M,,*6D
$GPGSA,A,3,01,02,03,04,05,06,07,08,09,10,11,12,1.0,1.0,1.0*30
$GPRMC,054401.387,A,5005.959,N,00844.413,E,038.9,165.8,081025,000.0,W*7F
$GPGGA,054402.387,5005.948,N,00844.418,E,1,12,1.0,0.0,M,0.0,M,,*65
$GPGSA,A,3,01,02,03,04,05,06,07,08,09,10,11,12,1.0,1.0,1.0*30
$GPRMC,054402.387,A,5005.948,N,00844.418,E,038.9,165.8,081025,000.0,W*77
$GPGGA,054403.387,5005.938,N,00844.422,E,1,12,1.0,0.0,M,0.0,M,,*6A
$GPGSA,A,3,01,02,03,04,05,06,07,08,09,10,11,12,1.0,1.0,1.0*30
$GPRMC,054403.387,A,5005.938,N,00844.422,E,038.9,165.8,081025,000.0,W*78
$GPGGA,054404.387,5005.927,N,00844.426,E,1,12,1.0,0.0,M,0.0,M,,*67
$GPGSA,A,3,01,02,03,04,05,06,07,08,09,10,11,12,1.0,1.0,1.0*30
$GPRMC,054404.387,A,5005.927,N,00844.426,E,038.9,165.8,081025,000.0,W*75
$GPGGA,054405.387,5005.917,N,00844.430,E,1,12,1.0,0.0,M,0.0,M,,*62
$GPGSA,A,3,01,02,03,04,05,06,07,08,09,10,11,12,1.0,1.0,1.0*30
$GPRMC,054405.387,A,5005.917,N,00844.430,E,038.9,165.8,081025,000.0,W*70
$GPGGA,054406.387,5005.906,N,00844.434,E,1,12,1.0,0.0,M,0.0,M,,*65
$GPGSA,A,3,01,02,03,04,05,06,07,08,09,10,11,12,1.0,1.0,1.0*30
$GPRMC,054406.387,A,5005.906,N,00844.434,E,038.9,165.8,081025,000.0,W*77
$GPGGA,054407.387,5005.896,N,00844.438,E,1,12,1.0,0.0,M,0.0,M,,*60
$GPGSA,A,3,01,02,03,04,05,06,07,08,09,10,11,12,1.0,1.0,1.0*30
$GPRMC,054407.387,A,5005.896,N,00844.438,E,038.9,165.8,081025,000.0,W*72
$GPGGA,054408.387,5005.885,N,00844.442,E,1,12,1.0,0.0,M,0.0,M,,*60
$GPGSA,A,3,01,02,03,04,05,06,07,08,09,10,11,12,1.0,1.0,1.0*30
$GPRMC,054408.387,A,5005.885,N,00844.442,E,038.9,165.8,081025,000.0,W*72
$GPGGA,054409.387,5005.875,N,00844.446,E,1,12,1.0,0.0,M,0.0,M,,*6A
$GPGSA,A,3,01,02,03,04,05,06,07,08,09,10,11,12,1.0,1.0,1.0*30
$GPRMC,054409.387,A,5005.875,N,00844.446,E,038.9,165.8,081025,000.0,W*78
$GPGGA,054410.387,5005.864,N,00844.450,E,1,12,1.0,0.0,M,0.0,M,,*65
$GPGSA,A,3,01,02,03,04,05,06,07,08,09,10,11,12,1.0,1.0,1.0*30
$GPRMC,054410.387,A,5005.864,N,00844.450,E,038.9,165.8,081025,000.0,W*77
$GPGGA,054411.387,5005.854,N,00844.455,E,1,12,1.0,0.0,M,0.0,M,,*62
$GPGSA,A,3,01,02,03,04,05,06,07,08,09,10,11,12,1.0,1.0,1.0*30
$GPRMC,054411.387,A,5005.854,N,00844.455,E,038.9,165.8,081025,000.0,W*70
$GPGGA,054412.387,5005.844,N,00844.459,E,1,12,1.0,0.0,M,0.0,M,,*6C
$GPGSA,A,3,01,02,03,04,05,06,07,08,09,10,11,12,1.0,1.0,1.0*30
$GPRMC,054412.387,A,5005.844,N,00844.459,E,038.9,186.7,081025,000.0,W*7C
$GPGGA,054413.387,5005.833,N,00844.457,E,1,12,1.0,0.0,M,0.0,M,,*63
$GPGSA,A,3,01,02,03,04,05,06,07,08,09,10,11,12,1.0,1.0,1.0*30
$GPRMC,054413.387,A,5005.833,N,00844.457,E,038.9,186.7,081025,000.0,W*73
$GPGGA,054414.387,5005.822,N,00844.455,E,1,12,1.0,0.0,M,0.0,M,,*66
$GPGSA,A,3,01,02,03,04,05,06,07,08,09,10,11,12,1.0,1.0,1.0*30
$GPRMC,054414.387,A,5005.822,N,00844.455,E,038.9,186.7,081025,000.0,W*76
$GPGGA,054415.387,5005.811,N,00844.453,E,1,12,1.0,0.0,M,0.0,M,,*61
$GPGSA,A,3,01,02,03,04,05,06,07,08,09,10,11,12,1.0,1.0,1.0*30
$GPRMC,054415.387,A,5005.811,N,00844.453,E,038.9,186.7,081025,000.0,W*71
$GPGGA,054416.387,5005.801,N,00844.451,E,1,12,1.0,0.0,M,0.0,M,,*61
$GPGSA,A,3,01,02,03,04,05,06,07,08,09,10,11,12,1.0,1.0,1.0*30
$GPRMC,054416.387,A,5005.801,N,00844.451,E,038.9,186.7,081025,000.0,W*71
$GPGGA,054417.387,5005.790,N,00844.449,E,1,12,1.0,0.0,M,0.0,M,,*6E
$GPGSA,A,3,01,02,03,04,05,06,07,08,09,10,11,12,1.0,1.0,1.0*30
$GPRMC,054417.387,A,5005.790,N,00844.449,E,038.9,186.7,081025,000.0,W*7E
$GPGGA,054418.387,5005.779,N,00844.447,E,1,12,1.0,0.0,M,0.0,M,,*68
$GPGSA,A,3,01,02,03,04,05,06,07,08,09,10,11,12,1.0,1.0,1.0*30
$GPRMC,054418.387,A,5005.779,N,00844.447,E,038.9,186.7,081025,000.0,W*78
$GPGGA,054419.387,5005.769,N,00844.445,E,1,12,1.0,0.0,M,0.0,M,,*6A
$GPGSA,A,3,01,02,03,04,05,06,07,08,09,10,11,12,1.0,1.0,1.0*30
$GPRMC,054419.387,A,5005.769,N,00844.445,E,038.9,186.7,081025,000.0,W*7A
$GPGGA,054420.387,5005.758,N,00844.443,E,1,12,1.0,0.0,M,0.0,M,,*64
$GPGSA,A,3,01,02,03,04,05,06,07,08,09,10,11,12,1.0,1.0,1.0*30
$GPRMC,054420.387,A,5005.758,N,00844.443,E,038.9,186.7,081025,000.0,W*74
$GPGGA,054421.387,5005.747,N,00844.441,E,1,12,1.0,0.0,M,0.0,M,,*69
$GPGSA,A,3,01,02,03,04,05,06,07,08,09,10,11,12,1.0,1.0,1.0*30
$GPRMC,054421.387,A,5005.747,N,00844.441,E,038.9,186.7,081025,000.0,W*79
$GPGGA,054422.387,5005.736,N,00844.439,E,1,12,1.0,0.0,M,0.0,M,,*63
$GPGSA,A,3,01,02,03,04,05,06,07,08,09,10,11,12,1.0,1.0,1.0*30
$GPRMC,054422.387,A,5005.736,N,00844.439,E,038.9,186.7,081025,000.0,W*73
$GPGGA,054423.387,5005.726,N,00844.437,E,1,12,1.0,0.0,M,0.0,M,,*6D
$GPGSA,A,3,01,02,03,04,05,06,07,08,09,10,11,12,1.0,1.0,1.0*30
$GPRMC,054423.387,A,5005.726,N,00844.437,E,038.9,186.7,081025,000.0,W*7D
$GPGGA,054424.387,5005.715,N,00844.435,E,1,12,1.0,0.0,M,0.0,M,,*68
$GPGSA,A,3,01,02,03,04,05,06,07,08,09,10,11,12,1.0,1.0,1.0*30
$GPRMC,054424.387,A,5005.715,N,00844.435,E,038.9,186.7,081025,000.0,W*78
$GPGGA,054425.387,5005.704,N,00844.433,E,1,12,1.0,0.0,M,0.0,M,,*6F
$GPGSA,A,3,01,02,03,04,05,06,07,08,09,10,11,12,1.0,1.0,1.0*30
$GPRMC,054425.387,A,5005.704,N,00844.433,E,038.9,186.7,081025,000.0,W*7F
$GPGGA,054426.387,5005.693,N,00844.431,E,1,12,1.0,0.0,M,0.0,M,,*61
$GPGSA,A,3,01,02,03,04,05,06,07,08,09,10,11,12,1.0,1.0,1.0*30
$GPRMC,054426.387,A,5005.693,N,00844.431,E,038.9,186.7,081025,000.0,W*71
$GPGGA,054427.387,5005.683,N,00844.429,E,1,12,1.0,0.0,M,0.0,M,,*68
$GPGSA,A,3,01,02,03,04,05,06,07,08,09,10,11,12,1.0,1.0,1.0*30
$GPRMC,054427.387,A,5005.683,N,00844.429,E,038.9,186.7,081025,000.0,W*78
$GPGGA,054428.387,5005.672,N,00844.427,E,1,12,1.0,0.0,M,0.0,M,,*67
$GPGSA,A,3,01,02,03,04,05,06,07,08,09,10,11,12,1.0,1.0,1.0*30
$GPRMC,054428.387,A,5005.672,N,00844.427,E,038.9,186.7,081025,000.0,W*77
$GPGGA,054429.387,5005.661,N,00844.425,E,1,12,1.0,0.0,M,0.0,M,,*66
$GPGSA,A,3,01,02,03,04,05,06,07,08,09,10,11,12,1.0,1.0,1.0*30
$GPRMC,054429.387,A,5005.661,N,00844.425,E,038.9,186.7,081025,000.0,W*76
$GPGGA,054430.387,5005.651,N,00844.423,E,1,12,1.0,0.0,M,0.0,M,,*6B
$GPGSA,A,3,01,02,03,04,05,06,07,08,09,10,11,12,1.0,1.0,1.0*30
$GPRMC,054430.387,A,5005.651,N,00844.423,E,038.9,186.7,081025,000.0,W*7B
$GPGGA,054431.387,5005.640,N,00844.421,E,1,12,1.0,0.0,M,0.0,M,,*68
$GPGSA,A,3,01,02,03,04,05,06,07,08,09,10,11,12,1.0,1.0,1.0*30
$GPRMC,054431.387,A,5005.640,N,00844.421,E,038.9,186.7,081025,000.0,W*78
$GPGGA,054432.387,5005.629,N,00844.419,E,1,12,1.0,0.0,M,0.0,M,,*6F
$GPGSA,A,3,01,02,03,04,05,06,07,08,09,10,11,12,1.0,1.0,1.0*30
$GPRMC,054432.387,A,5005.629,N,00844.419,E,038.9,186.7,081025,000.0,W*7F
$GPGGA,054433.387,5005.618,N,00844.417,E,1,12,1.0,0.0,M,0.0,M,,*62
$GPGSA,A,3,01,02,03,04,05,06,07,08,09,10,11,12,1.0,1.0,1.0*30
$GPRMC,054433.387,A,5005.618,N,00844.417,E,038.9,186.7,081025,000.0,W*72
$GPGGA,054434.387,5005.608,N,00844.415,E,1,12,1.0,0.0,M,0.0,M,,*66
$GPGSA,A,3,01,02,03,04,05,06,07,08,09,10,11,12,1.0,1.0,1.0*30
$GPRMC,054434.387,A,5005.608,N,00844.415,E,038.9,186.7,081025,000.0,W*76
$GPGGA,054435.387,5005.597,N,00844.413,E,1,12,1.0,0.0,M,0.0,M,,*64
$GPGSA,A,3,01,02,03,04,05,06,07,08,09,10,11,12,1.0,1.0,1.0*30
$GPRMC,054435.387,A,5005.597,N,00844.413,E,038.9,186.7,081025,000.0,W*74
$GPGGA,054436.387,5005.586,N,00844.412,E,1,12,1.0,0.0,M,0.0,M,,*66
$GPGSA,A,3,01,02,03,04,05,06,07,08,09,10,11,12,1.0,1.0,1.0*30
$GPRMC,054436.387,A,5005.586,N,00844.412,E,038.9,197.0,081025,000.0,W*71
$GPGGA,054437.387,5005.576,N,00844.407,E,1,12,1.0,0.0,M,0.0,M,,*6C
$GPGSA,A,3,01,02,03,04,05,06,07,08,09,10,11,12,1.0,1.0,1.0*30
$GPRMC,054437.387,A,5005.576,N,00844.407,E,038.9,197.0,081025,000.0,W*7B
$GPGGA,054438.387,5005.566,N,00844.402,E,1,12,1.0,0.0,M,0.0,M,,*67
$GPGSA,A,3,01,02,03,04,05,06,07,08,09,10,11,12,1.0,1.0,1.0*30
$GPRMC,054438.387,A,5005.566,N,00844.402,E,038.9,197.0,081025,000.0,W*70
$GPGGA,054439.387,5005.555,N,00844.397,E,1,12,1.0,0.0,M,0.0,M,,*6D
$GPGSA,A,3,01,02,03,04,05,06,07,08,09,10,11,12,1.0,1.0,1.0*30
$GPRMC,054439.387,A,5005.555,N,00844.397,E,038.9,197.0,081025,000.0,W*7A
