$GPGGA,180211.170,4631.431,N,00633.966,E,1,12,1.0,0.0,M,0.0,M,,*6A
$GPGSA,A,3,01,02,03,04,05,06,07,08,09,10,11,12,1.0,1.0,1.0*30
$GPRMC,180211.170,A,4631.431,N,00633.966,E,009.7,268.4,121125,000.0,W*7C
$GPGGA,180212.170,4631.431,N,00633.962,E,1,12,1.0,0.0,M,0.0,M,,*6D
$GPGSA,A,3,01,02,03,04,05,06,07,08,09,10,11,12,1.0,1.0,1.0*30
$GPRMC,180212.170,A,4631.431,N,00633.962,E,009.7,268.4,121125,000.0,W*7B
$GPGGA,180213.170,4631.431,N,00633.958,E,1,12,1.0,0.0,M,0.0,M,,*65
$GPGSA,A,3,01,02,03,04,05,06,07,08,09,10,11,12,1.0,1.0,1.0*30
$GPRMC,180213.170,A,4631.431,N,00633.958,E,009.7,268.4,121125,000.0,W*73
$GPGGA,180214.170,4631.431,N,00633.954,E,1,12,1.0,0.0,M,0.0,M,,*6E
$GPGSA,A,3,01,02,03,04,05,06,07,08,09,10,11,12,1.0,1.0,1.0*30
$GPRMC,180214.170,A,4631.431,N,00633.954,E,009.7,268.4,121125,000.0,W*78
$GPGGA,180215.170,4631.431,N,00633.950,E,1,12,1.0,0.0,M,0.0,M,,*6B
$GPGSA,A,3,01,02,03,04,05,06,07,08,09,10,11,12,1.0,1.0,1.0*30
$GPRMC,180215.170,A,4631.431,N,00633.950,E,009.7,268.4,121125,000.0,W*7D
$GPGGA,180216.170,4631.431,N,00633.946,E,1,12,1.0,0.0,M,0.0,M,,*6F
$GPGSA,A,3,01,02,03,04,05,06,07,08,09,10,11,12,1.0,1.0,1.0*30
$GPRMC,180216.170,A,4631.431,N,00633.946,E,009.7,268.4,121125,000.0,W*79
$GPGGA,180217.170,4631.431,N,00633.943,E,1,12,1.0,0.0,M,0.0,M,,*6B
$GPGSA,A,3,01,02,03,04,05,06,07,08,09,10,11,12,1.0,1.0,1.0*30
$GPRMC,180217.170,A,4631.431,N,00633.943,E,009.7,268.4,121125,000.0,W*7D
$GPGGA,180218.170,4631.431,N,00633.939,E,1,12,1.0,0.0,M,0.0,M,,*69
$GPGSA,A,3,01,02,03,04,05,06,07,08,09,10,11,12,1.0,1.0,1.0*30
$GPRMC,180218.170,A,4631.431,N,00633.939,E,009.7,268.4,121125,000.0,W*7F
$GPGGA,180219.170,4631.430,N,00633.935,E,1,12,1.0,0.0,M,0.0,M,,*65
$GPGSA,A,3,01,02,03,04,05,06,07,08,09,10,11,12,1.0,1.0,1.0*30
$GPRMC,180219.170,A,4631.430,N,00633.935,E,009.7,268.4,121125,000.0,W*73
$GPGGA,180220.170,4631.430,N,00633.931,E,1,12,1.0,0.0,M,0.0,M,,*6B
$GPGSA,A,3,01,02,03,04,05,06,07,08,09,10,11,12,1.0,1.0,1.0*30
$GPRMC,180220.170,A,4631.430,N,00633.931,E,009.7,268.4,121125,000.0,W*7D
$GPGGA,180221.170,4631.430,N,00633.927,E,1,12,1.0,0.0,M,0.0,M,,*6D
$GPGSA,A,3,01,02,03,04,05,06,07,08,09,10,11,12,1.0,1.0,1.0*30
$GPRMC,180221.170,A,4631.430,N,00633.927,E,009.7,268.4,121125,000.0,W*7B
$GPGGA,180222.170,4631.430,N,00633.923,E,1,12,1.0,0.0,M,0.0,M,,*6A
$GPGSA,A,3,01,02,03,04,05,06,07,08,09,10,11,12,1.0,1.0,1.0*30
$GPRMC,180222.170,A,4631.430,N,00633.923,E,009.7,268.4,121125,000.0,W*7C
$GPGGA,180223.170,4631.430,N,00633.919,E,1,12,1.0,0.0,M,0.0,M,,*62
$GPGSA,A,3,01,02,03,04,05,06,07,08,09,10,11,12,1.0,1.0,1.0*30
$GPRMC,180223.170,A,4631.430,N,00633.919,E,009.7,268.4,121125,000.0,W*74
$GPGGA,180224.170,4631.430,N,00633.915,E,1,12,1.0,0.0,M,0.0,M,,*69
$GPGSA,A,3,01,02,03,04,05,06,07,08,09,10,11,12,1.0,1.0,1.0*30
$GPRMC,180224.170,A,4631.430,N,00633.915,E,009.7,268.4,121125,000.0,W*7F
$GPGGA,180225.170,4631.430,N,00633.911,E,1,12,1.0,0.0,M,0.0,M,,*6C
$GPGSA,A,3,01,02,03,04,05,06,07,08,09,10,11,12,1.0,1.0,1.0*30
$GPRMC,180225.170,A,4631.430,N,00633.911,E,009.7,268.4,121125,000.0,W*7A
$GPGGA,180226.170,4631.430,N,00633.907,E,1,12,1.0,0.0,M,0.0,M,,*68
$GPGSA,A,3,01,02,03,04,05,06,07,08,09,10,11,12,1.0,1.0,1.0*30
$GPRMC,180226.170,A,4631.430,N,00633.907,E,009.7,268.8,121125,000.0,W*72
$GPGGA,180227.170,4631.430,N,00633.903,E,1,12,1.0,0.0,M,0.0,M,,*6D
$GPGSA,A,3,01,02,03,04,05,06,07,08,09,10,11,12,1.0,1.0,1.0*30
$GPRMC,180227.170,A,4631.430,N,00633.903,E,009.7,268.8,121125,000.0,W*77
$GPGGA,180228.170,4631.430,N,00633.899,E,1,12,1.0,0.0,M,0.0,M,,*60
$GPGSA,A,3,01,02,03,04,05,06,07,08,09,10,11,12,1.0,1.0,1.0*30
$GPRMC,180228.170,A,4631.430,N,00633.899,E,009.7,268.8,121125,000.0,W*7A
$GPGGA,180229.170,4631.430,N,00633.896,E,1,12,1.0,0.0,M,0.0,M,,*6E
$GPGSA,A,3,01,02,03,04,05,06,07,08,09,10,11,12,1.0,1.0,1.0*30
$GPRMC,180229.170,A,4631.430,N,00633.896,E,009.7,268.8,121125,000.0,W*74
$GPGGA,180230.170,4631.430,N,00633.892,E,1,12,1.0,0.0,M,0.0,M,,*62
$GPGSA,A,3,01,02,03,04,05,06,07,08,09,10,11,12,1.0,1.0,1.0*30
$GPRMC,180230.170,A,4631.430,N,00633.892,E,009.7,268.8,121125,000.0,W*78
$GPGGA,180231.170,4631.430,N,00633.888,E,1,12,1.0,0.0,M,0.0,M,,*68
$GPGSA,A,3,01,02,03,04,05,06,07,08,09,10,11,12,1.0,1.0,1.0*30
$GPRMC,180231.170,A,4631.430,N,00633.888,E,009.7,268.8,121125,000.0,W*72
$GPGGA,180232.170,4631.430,N,00633.884,E,1,12,1.0,0.0,M,0.0,M,,*67
$GPGSA,A,3,01,02,03,04,05,06,07,08,09,10,11,12,1.0,1.0,1.0*30
$GPRMC,180232.170,A,4631.430,N,00633.884,E,009.7,268.8,121125,000.0,W*7D
$GPGGA,180233.170,4631.430,N,00633.880,E,1,12,1.0,0.0,M,0.0,M,,*62
$GPGSA,A,3,01,02,03,04,05,06,07,08,09,10,11,12,1.0,1.0,1.0*30
$GPRMC,180233.170,A,4631.430,N,00633.880,E,009.7,255.7,121125,000.0,W*79
$GPGGA,180234.170,4631.429,N,00633.876,E,1,12,1.0,0.0,M,0.0,M,,*64
$GPGSA,A,3,01,02,03,04,05,06,07,08,09,10,11,12,1.0,1.0,1.0*30
$GPRMC,180234.170,A,4631.429,N,00633.876,E,009.7,255.7,121125,000.0,W*7F
$GPGGA,180235.170,4631.428,N,00633.872,E,1,12,1.0,0.0,M,0.0,M,,*60
$GPGSA,A,3,01,02,03,04,05,06,07,08,09,10,11,12,1.0,1.0,1.0*30
$GPRMC,180235.170,A,4631.428,N,00633.872,E,009.7,255.7,121125,000.0,W*7B
$GPGGA,180236.170,4631.428,N,00633.868,E,1,12,1.0,0.0,M,0.0,M,,*68
$GPGSA,A,3,01,02,03,04,05,06,07,08,09,10,11,12,1.0,1.0,1.0*30
$GPRMC,180236.170,A,4631.428,N,00633.868,E,009.7,224.4,121125,000.0,W*76
$GPGGA,180237.170,4631.426,N,00633.866,E,1,12,1.0,0.0,M,0.0,M,,*69
$GPGSA,A,3,01,02,03,04,05,06,07,08,09,10,11,12,1.0,1.0,1.0*30
$GPRMC,180237.170,A,4631.426,N,00633.866,E,009.7,224.4,121125,000.0,W*77
$GPGGA,180238.170,4631.424,N,00633.863,E,1,12,1.0,0.0,M,0.0,M,,*61
$GPGSA,A,3,01,02,03,04,05,06,07,08,09,10,11,12,1.0,1.0,1.0*30
$GPRMC,180238.170,A,4631.424,N,00633.863,E,009.7,212.0,121125,000.0,W*7E
$GPGGA,180239.170,4631.421,N,00633.861,E,1,12,1.0,0.0,M,0.0,M,,*67
$GPGSA,A,3,01,02,03,04,05,06,07,08,09,10,11,12,1.0,1.0,1.0*30
$GPRMC,180239.170,A,4631.421,N,00633.861,E,009.7,212.0,121125,000.0,W*78
$GPGGA,180240.170,4631.419,N,00633.859,E,1,12,1.0,0.0,M,0.0,M,,*69
$GPGSA,A,3,01,02,03,04,05,06,07,08,09,10,11,12,1.0,1.0,1.0*30
$GPRMC,180240.170,A,4631.419,N,00633.859,E,009.7,212.0,121125,000.0,W*76
$GPGGA,180241.170,4631.417,N,00633.857,E,1,12,1.0,0.0,M,0.0,M,,*68
$GPGSA,A,3,01,02,03,04,05,06,07,08,09,10,11,12,1.0,1.0,1.0*30
$GPRMC,180241.170,A,4631.417,N,00633.857,E,009.7,212.0,121125,000.0,W*77
$GPGGA,180242.170,4631.415,N,00633.855,E,1,12,1.0,0.0,M,0.0,M,,*6B
$GPGSA,A,3,01,02,03,04,05,06,07,08,09,10,11,12,1.0,1.0,1.0*30
$GPRMC,180242.170,A,4631.415,N,00633.855,E,009.7,212.0,121125,000.0,W*74
$GPGGA,180243.170,4631.412,N,00633.853,E,1,12,1.0,0.0,M,0.0,M,,*6B
$GPGSA,A,3,01,02,03,04,05,06,07,08,09,10,11,12,1.0,1.0,1.0*30
$GPRMC,180243.170,A,4631.412,N,00633.853,E,009.7,200.5,121125,000.0,W*72
$GPGGA,180244.170,4631.410,N,00633.851,E,1,12,1.0,0.0,M,0.0,M,,*6C
$GPGSA,A,3,01,02,03,04,05,06,07,08,09,10,11,12,1.0,1.0,1.0*30
$GPRMC,180244.170,A,4631.410,N,00633.851,E,009.7,200.5,121125,000.0,W*75
$GPGGA,180245.170,4631.407,N,00633.850,E,1,12,1.0,0.0,M,0.0,M,,*6A
$GPGSA,A,3,01,02,03,04,05,06,07,08,09,10,11,12,1.0,1.0,1.0*30
$GPRMC,180245.170,A,4631.407,N,00633.850,E,009.7,200.5,121125,000.0,W*73
$GPGGA,180246.170,4631.405,N,00633.848,E,1,12,1.0,0.0,M,0.0,M,,*62
$GPGSA,A,3,01,02,03,04,05,06,07,08,09,10,11,12,1.0,1.0,1.0*30
$GPRMC,180246.170,A,4631.405,N,00633.848,E,009.7,200.5,121125,000.0,W*7B
$GPGGA,180247.170,4631.402,N,00633.847,E,1,12,1.0,0.0,M,0.0,M,,*6B
$GPGSA,A,3,01,02,03,04,05,06,07,08,09,10,11,12,1.0,1.0,1.0*30
$GPRMC,180247.170,A,4631.402,N,00633.847,E,009.7,200.5,121125,000.0,W*72
$GPGGA,180248.170,4631.400,N,00633.846,E,1,12,1.0,0.0,M,0.0,M,,*67
$GPGSA,A,3,01,02,03,04,05,06,07,08,09,10,11,12,1.0,1.0,1.0*30
$GPRMC,180248.170,A,4631.400,N,00633.846,E,009.7,200.5,121125,000.0,W*7E
$GPGGA,180249.170,4631.397,N,00633.844,E,1,12,1.0,0.0,M,0.0,M,,*6D
$GPGSA,A,3,01,02,03,04,05,06,07,08,09,10,11,12,1.0,1.0,1.0*30
$GPRMC,180249.170,A,4631.397,N,00633.844,E,009.7,184.7,121125,000.0,W*79
$GPGGA,180250.170,4631.394,N,00633.844,E,1,12,1.0,0.0,M,0.0,M,,*66
$GPGSA,A,3,01,02,03,04,05,06,07,08,09,10,11,12,1.0,1.0,1.0*30
$GPRMC,180250.170,A,4631.394,N,00633.844,E,009.7,184.7,121125,000.0,W*72
$GPGGA,180251.170,4631.392,N,00633.844,E,1,12,1.0,0.0,M,0.0,M,,*61
$GPGSA,A,3,01,02,03,04,05,06,07,08,09,10,11,12,1.0,1.0,1.0*30
$GPRMC,180251.170,A,4631.392,N,00633.844,E,009.7,184.7,121125,000.0,W*75
$GPGGA,180252.170,4631.389,N,00633.843,E,1,12,1.0,0.0,M,0.0,M,,*6F
$GPGSA,A,3,01,02,03,04,05,06,07,08,09,10,11,12,1.0,1.0,1.0*30
$GPRMC,180252.170,A,4631.389,N,00633.843,E,009.7,184.7,121125,000.0,W*7B
$GPGGA,180253.170,4631.386,N,00633.843,E,1,12,1.0,0.0,M,0.0,M,,*61
$GPGSA,A,3,01,02,03,04,05,06,07,08,09,10,11,12,1.0,1.0,1.0*30
$GPRMC,180253.170,A,4631.386,N,00633.843,E,009.7,184.7,121125,000.0,W*75
$GPGGA,180254.170,4631.384,N,00633.843,E,1,12,1.0,0.0,M,0.0,M,,*64
$GPGSA,A,3,01,02,03,04,05,06,07,08,09,10,11,12,1.0,1.0,1.0*30
$GPRMC,180254.170,A,4631.384,N,00633.843,E,009.7,183.3,121125,000.0,W*73
$GPGGA,180255.170,4631.381,N,00633.842,E,1,12,1.0,0.0,M,0.0,M,,*61
$GPGSA,A,3,01,02,03,04,05,06,07,08,09,10,11,12,1.0,1.0,1.0*30
$GPRMC,180255.170,A,4631.381,N,00633.842,E,009.7,183.3,121125,000.0,W*76
$GPGGA,180256.170,4631.378,N,00633.842,E,1,12,1.0,0.0,M,0.0,M,,*64
$GPGSA,A,3,01,02,03,04,05,06,07,08,09,10,11,12,1.0,1.0,1.0*30
$GPRMC,180256.170,A,4631.378,N,00633.842,E,009.7,183.3,121125,000.0,W*73
$GPGGA,180257.170,4631.376,N,00633.842,E,1,12,1.0,0.0,M,0.0,M,,*6B
$GPGSA,A,3,01,02,03,04,05,06,07,08,09,10,11,12,1.0,1.0,1.0*30
$GPRMC,180257.170,A,4631.376,N,00633.842,E,009.7,183.3,121125,000.0,W*7C
$GPGGA,180258.170,4631.373,N,00633.842,E,1,12,1.0,0.0,M,0.0,M,,*61
$GPGSA,A,3,01,02,03,04,05,06,07,08,09,10,11,12,1.0,1.0,1.0*30
$GPRMC,180258.170,A,4631.373,N,00633.842,E,009.7,183.3,121125,000.0,W*76
$GPGGA,180259.170,4631.370,N,00633.842,E,1,12,1.0,0.0,M,0.0,M,,*63
$GPGSA,A,3,01,02,03,04,05,06,07,08,09,10,11,12,1.0,1.0,1.0*30
$GPRMC,180259.170,A,4631.370,N,00633.842,E,009.7,183.6,121125,000.0,W*71
$GPGGA,180300.170,4631.368,N,00633.841,E,1,12,1.0,0.0,M,0.0,M,,*64
$GPGSA,A,3,01,02,03,04,05,06,07,08,09,10,11,12,1.0,1.0,1.0*30
$GPRMC,180300.170,A,4631.368,N,00633.841,E,009.7,183.6,121125,000.0,W*76
$GPGGA,180301.170,4631.365,N,00633.841,E,1,12,1.0,0.0,M,0.0,M,,*68
$GPGSA,A,3,01,02,03,04,05,06,07,08,09,10,11,12,1.0,1.0,1.0*30
$GPRMC,180301.170,A,4631.365,N,00633.841,E,009.7,183.6,121125,000.0,W*7A
$GPGGA,180302.170,4631.362,N,00633.841,E,1,12,1.0,0.0,M,0.0,M,,*6C
$GPGSA,A,3,01,02,03,04,05,06,07,08,09,10,11,12,1.0,1.0,1.0*30
$GPRMC,180302.170,A,4631.362,N,00633.841,E,009.7,183.6,121125,000.0,W*7E
$GPGGA,180303.170,4631.359,N,00633.841,E,1,12,1.0,0.0,M,0.0,M,,*65
$GPGSA,A,3,01,02,03,04,05,06,07,08,09,10,11,12,1.0,1.0,1.0*30
$GPRMC,180303.170,A,4631.359,N,00633.841,E,009.7,076.7,121125,000.0,W*7D
$GPGGA,180304.170,4631.360,N,00633.844,E,1,12,1.0,0.0,M,0.0,M,,*6D
$GPGSA,A,3,01,02,03,04,05,06,07,08,09,10,11,12,1.0,1.0,1.0*30
$GPRMC,180304.170,A,4631.360,N,00633.844,E,009.7,123.0,121125,000.0,W*73
$GPGGA,180305.170,4631.359,N,00633.848,E,1,12,1.0,0.0,M,0.0,M,,*6A
$GPGSA,A,3,01,02,03,04,05,06,07,08,09,10,11,12,1.0,1.0,1.0*30
$GPRMC,180305.170,A,4631.359,N,00633.848,E,009.7,123.0,121125,000.0,W*74
$GPGGA,180306.170,4631.357,N,00633.851,E,1,12,1.0,0.0,M,0.0,M,,*6F
$GPGSA,A,3,01,02,03,04,05,06,07,08,09,10,11,12,1.0,1.0,1.0*30
$GPRMC,180306.170,A,4631.357,N,00633.851,E,009.7,090.6,121125,000.0,W*7E
$GPGGA,180307.170,4631.357,N,00633.855,E,1,12,1.0,0.0,M,0.0,M,,*6A
$GPGSA,A,3,01,02,03,04,05,06,07,08,09,10,11,12,1.0,1.0,1.0*30
$GPRMC,180307.170,A,4631.357,N,00633.855,E,009.7,090.6,121125,000.0,W*7B
$GPGGA,180308.170,4631.357,N,00633.859,E,1,12,1.0,0.0,M,0.0,M,,*69
$GPGSA,A,3,01,02,03,04,05,06,07,08,09,10,11,12,1.0,1.0,1.0*30
$GPRMC,180308.170,A,4631.357,N,00633.859,E,009.7,090.6,121125,000.0,W*78
$GPGGA,180309.170,4631.357,N,00633.863,E,1,12,1.0,0.0,M,0.0,M,,*61
$GPGSA,A,3,01,02,03,04,05,06,07,08,09,10,11,12,1.0,1.0,1.0*30
$GPRMC,180309.170,A,4631.357,N,00633.863,E,009.7,090.6,121125,000.0,W*70
$GPGGA,180310.170,4631.357,N,00633.867,E,1,12,1.0,0.0,M,0.0,M,,*6D
$GPGSA,A,3,01,02,03,04,05,06,07,08,09,10,11,12,1.0,1.0,1.0*30
$GPRMC,180310.170,A,4631.357,N,00633.867,E,009.7,090.6,121125,000.0,W*7C
$GPGGA,180311.170,4631.357,N,00633.871,E,1,12,1.0,0.0,M,0.0,M,,*6B
$GPGSA,A,3,01,02,03,04,05,06,07,08,09,10,11,12,1.0,1.0,1.0*30
$GPRMC,180311.170,A,4631.357,N,00633.871,E,009.7,090.6,121125,000.0,W*7A
$GPGGA,180312.170,4631.357,N,00633.874,E,1,12,1.0,0.0,M,0.0,M,,*6D
$GPGSA,A,3,01,02,03,04,05,06,07,08,09,10,11,12,1.0,1.0,1.0*30
$GPRMC,180312.170,A,4631.357,N,00633.874,E,009.7,090.6,121125,000.0,W*7C
$GPGGA,180313.170,4631.357,N,00633.878,E,1,12,1.0,0.0,M,0.0,M,,*60
$GPGSA,A,3,01,02,03,04,05,06,07,08,09,10,11,12,1.0,1.0,1.0*30
$GPRMC,180313.170,A,4631.357,N,00633.878,E,009.7,090.6,121125,000.0,W*71
$GPGGA,180314.170,4631.357,N,00633.882,E,1,12,1.0,0.0,M,0.0,M,,*62
$GPGSA,A,3,01,02,03,04,05,06,07,08,09,10,11,12,1.0,1.0,1.0*30
$GPRMC,180314.170,A,4631.357,N,00633.882,E,009.7,090.6,121125,000.0,W*73
$GPGGA,180315.170,4631.357,N,00633.886,E,1,12,1.0,0.0,M,0.0,M,,*67
$GPGSA,A,3,01,02,03,04,05,06,07,08,09,10,11,12,1.0,1.0,1.0*30
$GPRMC,180315.170,A,4631.357,N,00633.886,E,009.7,090.6,121125,000.0,W*76
$GPGGA,180316.170,4631.357,N,00633.890,E,1,12,1.0,0.0,M,0.0,M,,*63
$GPGSA,A,3,01,02,03,04,05,06,07,08,09,10,11,12,1.0,1.0,1.0*30
$GPRMC,180316.170,A,4631.357,N,00633.890,E,009.7,090.6,121125,000.0,W*72
$GPGGA,180317.170,4631.357,N,00633.894,E,1,12,1.0,0.0,M,0.0,M,,*66
$GPGSA,A,3,01,02,03,04,05,06,07,08,09,10,11,12,1.0,1.0,1.0*30
$GPRMC,180317.170,A,4631.357,N,00633.894,E,009.7,090.6,121125,000.0,W*77
$GPGGA,180318.170,4631.357,N,00633.898,E,1,12,1.0,0.0,M,0.0,M,,*65
$GPGSA,A,3,01,02,03,04,05,06,07,08,09,10,11,12,1.0,1.0,1.0*30
$GPRMC,180318.170,A,4631.357,N,00633.898,E,009.7,090.6,121125,000.0,W*74
$GPGGA,180319.170,4631.357,N,00633.902,E,1,12,1.0,0.0,M,0.0,M,,*66
$GPGSA,A,3,01,02,03,04,05,06,07,08,09,10,11,12,1.0,1.0,1.0*30
$GPRMC,180319.170,A,4631.357,N,00633.902,E,009.7,090.6,121125,000.0,W*77
$GPGGA,180320.170,4631.357,N,00633.906,E,1,12,1.0,0.0,M,0.0,M,,*68
$GPGSA,A,3,01,02,03,04,05,06,07,08,09,10,11,12,1.0,1.0,1.0*30
$GPRMC,180320.170,A,4631.357,N,00633.906,E,009.7,090.6,121125,000.0,W*79
$GPGGA,180321.170,4631.357,N,00633.910,E,1,12,1.0,0.0,M,0.0,M,,*6E
$GPGSA,A,3,01,02,03,04,05,06,07,08,09,10,11,12,1.0,1.0,1.0*30
$GPRMC,180321.170,A,4631.357,N,00633.910,E,009.7,090.6,121125,000.0,W*7F
$GPGGA,180322.170,4631.357,N,00633.914,E,1,12,1.0,0.0,M,0.0,M,,*69
$GPGSA,A,3,01,02,03,04,05,06,07,08,09,10,11,12,1.0,1.0,1.0*30
$GPRMC,180322.170,A,4631.357,N,00633.914,E,009.7,170.4,121125,000.0,W*75
$GPGGA,180323.170,4631.354,N,00633.914,E,1,12,1.0,0.0,M,0.0,M,,*6B
$GPGSA,A,3,01,02,03,04,05,06,07,08,09,10,11,12,1.0,1.0,1.0*30
$GPRMC,180323.170,A,4631.354,N,00633.914,E,009.7,198.9,121125,000.0,W*7C
$GPGGA,180324.170,4631.351,N,00633.913,E,1,12,1.0,0.0,M,0.0,M,,*6E
$GPGSA,A,3,01,02,03,04,05,06,07,08,09,10,11,12,1.0,1.0,1.0*30
$GPRMC,180324.170,A,4631.351,N,00633.913,E,009.7,198.9,121125,000.0,W*79
$GPGGA,180325.170,4631.349,N,00633.912,E,1,12,1.0,0.0,M,0.0,M,,*67
$GPGSA,A,3,01,02,03,04,05,06,07,08,09,10,11,12,1.0,1.0,1.0*30
$GPRMC,180325.170,A,4631.349,N,00633.912,E,009.7,211.7,121125,000.0,W*7C
$GPGGA,180326.170,4631.347,N,00633.910,E,1,12,1.0,0.0,M,0.0,M,,*68
$GPGSA,A,3,01,02,03,04,05,06,07,08,09,10,11,12,1.0,1.0,1.0*30
$GPRMC,180326.170,A,4631.347,N,00633.910,E,009.7,211.7,121125,000.0,W*73
$GPGGA,180327.170,4631.344,N,00633.908,E,1,12,1.0,0.0,M,0.0,M,,*63
$GPGSA,A,3,01,02,03,04,05,06,07,08,09,10,11,12,1.0,1.0,1.0*30
$GPRMC,180327.170,A,4631.344,N,00633.908,E,009.7,172.6,121125,000.0,W*7F
$GPGGA,180328.170,4631.342,N,00633.908,E,1,12,1.0,0.0,M,0.0,M,,*6A
$GPGSA,A,3,01,02,03,04,05,06,07,08,09,10,11,12,1.0,1.0,1.0*30
$GPRMC,180328.170,A,4631.342,N,00633.908,E,009.7,094.9,121125,000.0,W*70
$GPGGA,180329.170,4631.341,N,00633.912,E,1,12,1.0,0.0,M,0.0,M,,*63
$GPGSA,A,3,01,02,03,04,05,06,07,08,09,10,11,12,1.0,1.0,1.0*30
$GPRMC,180329.170,A,4631.341,N,00633.912,E,009.7,094.9,121125,000.0,W*79
$GPGGA,180330.170,4631.341,N,00633.916,E,1,12,1.0,0.0,M,0.0,M,,*6F
$GPGSA,A,3,01,02,03,04,05,06,07,08,09,10,11,12,1.0,1.0,1.0*30
$GPRMC,180330.170,A,4631.341,N,00633.916,E,009.7,094.9,121125,000.0,W*75
$GPGGA,180331.170,4631.341,N,00633.920,E,1,12,1.0,0.0,M,0.0,M,,*6B
$GPGSA,A,3,01,02,03,04,05,06,07,08,09,10,11,12,1.0,1.0,1.0*30
$GPRMC,180331.170,A,4631.341,N,00633.920,E,009.7,094.9,121125,000.0,W*71
$GPGGA,180332.170,4631.341,N,00633.924,E,1,12,1.0,0.0,M,0.0,M,,*6C
$GPGSA,A,3,01,02,03,04,05,06,07,08,09,10,11,12,1.0,1.0,1.0*30
$GPRMC,180332.170,A,4631.341,N,00633.924,E,009.7,094.9,121125,000.0,W*76
$GPGGA,180333.170,4631.340,N,00633.928,E,1,12,1.0,0.0,M,0.0,M,,*60
$GPGSA,A,3,01,02,03,04,05,06,07,08,09,10,11,12,1.0,1.0,1.0*30
$GPRMC,180333.170,A,4631.340,N,00633.928,E,009.7,073.3,121125,000.0,W*79
$GPGGA,180334.170,4631.341,N,00633.931,E,1,12,1.0,0.0,M,0.0,M,,*6E
$GPGSA,A,3,01,02,03,04,05,06,07,08,09,10,11,12,1.0,1.0,1.0*30
$GPRMC,180334.170,A,4631.341,N,00633.931,E,009.7,012.2,121125,000.0,W*71
$GPGGA,180335.170,4631.344,N,00633.932,E,1,12,1.0,0.0,M,0.0,M,,*69
$GPGSA,A,3,01,02,03,04,05,06,07,08,09,10,11,12,1.0,1.0,1.0*30
$GPRMC,180335.170,A,4631.344,N,00633.932,E,009.7,012.2,121125,000.0,W*76
$GPGGA,180336.170,4631.347,N,00633.933,E,1,12,1.0,0.0,M,0.0,M,,*68
$GPGSA,A,3,01,02,03,04,05,06,07,08,09,10,11,12,1.0,1.0,1.0*30
$GPRMC,180336.170,A,4631.347,N,00633.933,E,009.7,001.5,121125,000.0,W*72
$GPGGA,180337.170,4631.349,N,00633.933,E,1,12,1.0,0.0,M,0.0,M,,*67
$GPGSA,A,3,01,02,03,04,05,06,07,08,09,10,11,12,1.0,1.0,1.0*30
$GPRMC,180337.170,A,4631.349,N,00633.933,E,009.7,001.5,121125,000.0,W*7D
$GPGGA,180338.170,4631.352,N,00633.933,E,1,12,1.0,0.0,M,0.0,M,,*62
$GPGSA,A,3,01,02,03,04,05,06,07,08,09,10,11,12,1.0,1.0,1.0*30
$GPRMC,180338.170,A,4631.352,N,00633.933,E,009.7,001.5,121125,000.0,W*78
$GPGGA,180339.170,4631.355,N,00633.933,E,1,12,1.0,0.0,M,0.0,M,,*64
$GPGSA,A,3,01,02,03,04,05,06,07,08,09,10,11,12,1.0,1.0,1.0*30
$GPRMC,180339.170,A,4631.355,N,00633.933,E,009.7,001.5,121125,000.0,W*7E
$GPGGA,180340.170,4631.357,N,00633.934,E,1,12,1.0,0.0,M,0.0,M,,*6F
$GPGSA,A,3,01,02,03,04,05,06,07,08,09,10,11,12,1.0,1.0,1.0*30
$GPRMC,180340.170,A,4631.357,N,00633.934,E,009.7,357.1,121125,000.0,W*71
$GPGGA,180341.170,4631.360,N,00633.933,E,1,12,1.0,0.0,M,0.0,M,,*6D
$GPGSA,A,3,01,02,03,04,05,06,07,08,09,10,11,12,1.0,1.0,1.0*30
$GPRMC,180341.170,A,4631.360,N,00633.933,E,009.7,008.5,121125,000.0,W*7E
$GPGGA,180342.170,4631.363,N,00633.934,E,1,12,1.0,0.0,M,0.0,M,,*6A
$GPGSA,A,3,01,02,03,04,05,06,07,08,09,10,11,12,1.0,1.0,1.0*30
$GPRMC,180342.170,A,4631.363,N,00633.934,E,009.7,008.5,121125,000.0,W*79
$GPGGA,180343.170,4631.365,N,00633.935,E,1,12,1.0,0.0,M,0.0,M,,*6C
$GPGSA,A,3,01,02,03,04,05,06,07,08,09,10,11,12,1.0,1.0,1.0*30
$GPRMC,180343.170,A,4631.365,N,00633.935,E,009.7,088.7,121125,000.0,W*75
$GPGGA,180344.170,4631.365,N,00633.938,E,1,12,1.0,0.0,M,0.0,M,,*66
$GPGSA,A,3,01,02,03,04,05,06,07,08,09,10,11,12,1.0,1.0,1.0*30
$GPRMC,180344.170,A,4631.365,N,00633.938,E,009.7,088.7,121125,000.0,W*7F
$GPGGA,180345.170,4631.365,N,00633.942,E,1,12,1.0,0.0,M,0.0,M,,*6A
$GPGSA,A,3,01,02,03,04,05,06,07,08,09,10,11,12,1.0,1.0,1.0*30
$GPRMC,180345.170,A,4631.365,N,00633.942,E,009.7,008.4,121125,000.0,W*78
$GPGGA,180346.170,4631.368,N,00633.943,E,1,12,1.0,0.0,M,0.0,M,,*65
$GPGSA,A,3,01,02,03,04,05,06,07,08,09,10,11,12,1.0,1.0,1.0*30
$GPRMC,180346.170,A,4631.368,N,00633.943,E,009.7,008.4,121125,000.0,W*77
$GPGGA,180347.170,4631.371,N,00633.943,E,1,12,1.0,0.0,M,0.0,M,,*6C
$GPGSA,A,3,01,02,03,04,05,06,07,08,09,10,11,12,1.0,1.0,1.0*30
$GPRMC,180347.170,A,4631.371,N,00633.943,E,009.7,008.4,121125,000.0,W*7E
$GPGGA,180348.170,4631.373,N,00633.944,E,1,12,1.0,0.0,M,0.0,M,,*66
$GPGSA,A,3,01,02,03,04,05,06,07,08,09,10,11,12,1.0,1.0,1.0*30
$GPRMC,180348.170,A,4631.373,N,00633.944,E,009.7,313.3,121125,000.0,W*7A
$GPGGA,180349.170,4631.375,N,00633.941,E,1,12,1.0,0.0,M,0.0,M,,*64
$GPGSA,A,3,01,02,03,04,05,06,07,08,09,10,11,12,1.0,1.0,1.0*30
$GPRMC,180349.170,A,4631.375,N,00633.941,E,009.7,272.6,121125,000.0,W*7B
$GPGGA,180350.170,4631.375,N,00633.937,E,1,12,1.0,0.0,M,0.0,M,,*6D
$GPGSA,A,3,01,02,03,04,05,06,07,08,09,10,11,12,1.0,1.0,1.0*30
$GPRMC,180350.170,A,4631.375,N,00633.937,E,009.7,335.0,121125,000.0,W*76
$GPGGA,180351.170,4631.378,N,00633.936,E,1,12,1.0,0.0,M,0.0,M,,*60
$GPGSA,A,3,01,02,03,04,05,06,07,08,09,10,11,12,1.0,1.0,1.0*30
$GPRMC,180351.170,A,4631.378,N,00633.936,E,009.7,001.2,121125,000.0,W*7D
$GPGGA,180352.170,4631.381,N,00633.936,E,1,12,1.0,0.0,M,0.0,M,,*65
$GPGSA,A,3,01,02,03,04,05,06,07,08,09,10,11,12,1.0,1.0,1.0*30
$GPRMC,180352.170,A,4631.381,N,00633.936,E,009.7,001.2,121125,000.0,W*78
$GPGGA,180353.170,4631.383,N,00633.936,E,1,12,1.0,0.0,M,0.0,M,,*66
$GPGSA,A,3,01,02,03,04,05,06,07,08,09,10,11,12,1.0,1.0,1.0*30
$GPRMC,180353.170,A,4631.383,N,00633.936,E,009.7,083.2,121125,000.0,W*71
$GPGGA,180354.170,4631.384,N,00633.940,E,1,12,1.0,0.0,M,0.0,M,,*67
$GPGSA,A,3,01,02,03,04,05,06,07,08,09,10,11,12,1.0,1.0,1.0*30
$GPRMC,180354.170,A,4631.384,N,00633.940,E,009.7,083.2,121125,000.0,W*70
$GPGGA,180355.170,4631.384,N,00633.944,E,1,12,1.0,0.0,M,0.0,M,,*62
$GPGSA,A,3,01,02,03,04,05,06,07,08,09,10,11,12,1.0,1.0,1.0*30
$GPRMC,180355.170,A,4631.384,N,00633.944,E,009.7,083.2,121125,000.0,W*75
$GPGGA,180356.170,4631.384,N,00633.947,E,1,12,1.0,0.0,M,0.0,M,,*62
$GPGSA,A,3,01,02,03,04,05,06,07,08,09,10,11,12,1.0,1.0,1.0*30
$GPRMC,180356.170,A,4631.384,N,00633.947,E,009.7,083.2,121125,000.0,W*75
$GPGGA,180357.170,4631.385,N,00633.951,E,1,12,1.0,0.0,M,0.0,M,,*65
$GPGSA,A,3,01,02,03,04,05,06,07,08,09,10,11,12,1.0,1.0,1.0*30
$GPRMC,180357.170,A,4631.385,N,00633.951,E,009.7,083.2,121125,000.0,W*72
$GPGGA,180358.170,4631.385,N,00633.955,E,1,12,1.0,0.0,M,0.0,M,,*6E
$GPGSA,A,3,01,02,03,04,05,06,07,08,09,10,11,12,1.0,1.0,1.0*30
$GPRMC,180358.170,A,4631.385,N,00633.955,E,009.7,089.4,121125,000.0,W*75
$GPGGA,180359.170,4631.385,N,00633.959,E,1,12,1.0,0.0,M,0.0,M,,*63
$GPGSA,A,3,01,02,03,04,05,06,07,08,09,10,11,12,1.0,1.0,1.0*30
$GPRMC,180359.170,A,4631.385,N,00633.959,E,009.7,089.4,121125,000.0,W*78
$GPGGA,180400.170,4631.385,N,00633.963,E,1,12,1.0,0.0,M,0.0,M,,*61
$GPGSA,A,3,01,02,03,04,05,06,07,08,09,10,11,12,1.0,1.0,1.0*30
$GPRMC,180400.170,A,4631.385,N,00633.963,E,009.7,089.4,121125,000.0,W*7A
$GPGGA,180401.170,4631.385,N,00633.967,E,1,12,1.0,0.0,M,0.0,M,,*64
$GPGSA,A,3,01,02,03,04,05,06,07,08,09,10,11,12,1.0,1.0,1.0*30
$GPRMC,180401.170,A,4631.385,N,00633.967,E,009.7,089.4,121125,000.0,W*7F
$GPGGA,180402.170,4631.385,N,00633.971,E,1,12,1.0,0.0,M,0.0,M,,*60
$GPGSA,A,3,01,02,03,04,05,06,07,08,09,10,11,12,1.0,1.0,1.0*30
$GPRMC,180402.170,A,4631.385,N,00633.971,E,009.7,001.6,121125,000.0,W*79
$GPGGA,180403.170,4631.388,N,00633.971,E,1,12,1.0,0.0,M,0.0,M,,*6C
$GPGSA,A,3,01,02,03,04,05,06,07,08,09,10,11,12,1.0,1.0,1.0*30
$GPRMC,180403.170,A,4631.388,N,00633.971,E,009.7,001.6,121125,000.0,W*75
$GPGGA,180404.170,4631.390,N,00633.971,E,1,12,1.0,0.0,M,0.0,M,,*62
$GPGSA,A,3,01,02,03,04,05,06,07,08,09,10,11,12,1.0,1.0,1.0*30
$GPRMC,180404.170,A,4631.390,N,00633.971,E,009.7,001.6,121125,000.0,W*7B
$GPGGA,180405.170,4631.393,N,00633.971,E,1,12,1.0,0.0,M,0.0,M,,*60
$GPGSA,A,3,01,02,03,04,05,06,07,08,09,10,11,12,1.0,1.0,1.0*30
$GPRMC,180405.170,A,4631.393,N,00633.971,E,009.7,001.6,121125,000.0,W*79
$GPGGA,180406.170,4631.396,N,00633.971,E,1,12,1.0,0.0,M,0.0,M,,*66
$GPGSA,A,3,01,02,03,04,05,06,07,08,09,10,11,12,1.0,1.0,1.0*30
$GPRMC,180406.170,A,4631.396,N,00633.971,E,009.7,001.6,121125,000.0,W*7F
$GPGGA,180407.170,4631.398,N,00633.971,E,1,12,1.0,0.0,M,0.0,M,,*69
$GPGSA,A,3,01,02,03,04,05,06,07,08,09,10,11,12,1.0,1.0,1.0*30
$GPRMC,180407.170,A,4631.398,N,00633.971,E,009.7,000.2,121125,000.0,W*75
$GPGGA,180408.170,4631.401,N,00633.971,E,1,12,1.0,0.0,M,0.0,M,,*61
$GPGSA,A,3,01,02,03,04,05,06,07,08,09,10,11,12,1.0,1.0,1.0*30
$GPRMC,180408.170,A,4631.401,N,00633.971,E,009.7,000.2,121125,000.0,W*7D
$GPGGA,180409.170,4631.404,N,00633.972,E,1,12,1.0,0.0,M,0.0,M,,*66
$GPGSA,A,3,01,02,03,04,05,06,07,08,09,10,11,12,1.0,1.0,1.0*30
$GPRMC,180409.170,A,4631.404,N,00633.972,E,009.7,000.2,121125,000.0,W*7A
$GPGGA,180410.170,4631.407,N,00633.972,E,1,12,1.0,0.0,M,0.0,M,,*6D
$GPGSA,A,3,01,02,03,04,05,06,07,08,09,10,11,12,1.0,1.0,1.0*30
$GPRMC,180410.170,A,4631.407,N,00633.972,E,009.7,000.2,121125,000.0,W*71
$GPGGA,180411.170,4631.409,N,00633.972,E,1,12,1.0,0.0,M,0.0,M,,*62
$GPGSA,A,3,01,02,03,04,05,06,07,08,09,10,11,12,1.0,1.0,1.0*30
$GPRMC,180411.170,A,4631.409,N,00633.972,E,009.7,000.2,121125,000.0,W*7E
$GPGGA,180412.170,4631.412,N,00633.972,E,1,12,1.0,0.0,M,0.0,M,,*6B
$GPGSA,A,3,01,02,03,04,05,06,07,08,09,10,11,12,1.0,1.0,1.0*30
$GPRMC,180412.170,A,4631.412,N,00633.972,E,009.7,000.2,121125,000.0,W*77
$GPGGA,180413.170,4631.415,N,00633.972,E,1,12,1.0,0.0,M,0.0,M,,*6D
$GPGSA,A,3,01,02,03,04,05,06,07,08,09,10,11,12,1.0,1.0,1.0*30
$GPRMC,180413.170,A,4631.415,N,00633.972,E,009.7,091.4,121125,000.0,W*7F
$GPGGA,180414.170,4631.415,N,00633.975,E,1,12,1.0,0.0,M,0.0,M,,*6D
$GPGSA,A,3,01,02,03,04,05,06,07,08,09,10,11,12,1.0,1.0,1.0*30
$GPRMC,180414.170,A,4631.415,N,00633.975,E,009.7,091.4,121125,000.0,W*7F
$GPGGA,180415.170,4631.415,N,00633.979,E,1,12,1.0,0.0,M,0.0,M,,*60
$GPGSA,A,3,01,02,03,04,05,06,07,08,09,10,11,12,1.0,1.0,1.0*30
$GPRMC,180415.170,A,4631.415,N,00633.979,E,009.7,091.4,121125,000.0,W*72
$GPGGA,180416.170,4631.414,N,00633.983,E,1,12,1.0,0.0,M,0.0,M,,*67
$GPGSA,A,3,01,02,03,04,05,06,07,08,09,10,11,12,1.0,1.0,1.0*30
$GPRMC,180416.170,A,4631.414,N,00633.983,E,009.7,348.0,121125,000.0,W*76
$GPGGA,180417.170,4631.417,N,00633.982,E,1,12,1.0,0.0,M,0.0,M,,*64
$GPGSA,A,3,01,02,03,04,05,06,07,08,09,10,11,12,1.0,1.0,1.0*30
$GPRMC,180417.170,A,4631.417,N,00633.982,E,009.7,348.0,121125,000.0,W*75
$GPGGA,180418.170,4631.420,N,00633.982,E,1,12,1.0,0.0,M,0.0,M,,*6F
$GPGSA,A,3,01,02,03,04,05,06,07,08,09,10,11,12,1.0,1.0,1.0*30
$GPRMC,180418.170,A,4631.420,N,00633.982,E,009.7,318.0,121125,000.0,W*7B
$GPGGA,180419.170,4631.422,N,00633.979,E,1,12,1.0,0.0,M,0.0,M,,*68
$GPGSA,A,3,01,02,03,04,05,06,07,08,09,10,11,12,1.0,1.0,1.0*30
$GPRMC,180419.170,A,4631.422,N,00633.979,E,009.7,318.0,121125,000.0,W*7C
$GPGGA,180420.170,4631.424,N,00633.976,E,1,12,1.0,0.0,M,0.0,M,,*6B
$GPGSA,A,3,01,02,03,04,05,06,07,08,09,10,11,12,1.0,1.0,1.0*30
$GPRMC,180420.170,A,4631.424,N,00633.976,E,009.7,318.0,121125,000.0,W*7F
$GPGGA,180421.170,4631.426,N,00633.974,E,1,12,1.0,0.0,M,0.0,M,,*6A
$GPGSA,A,3,01,02,03,04,05,06,07,08,09,10,11,12,1.0,1.0,1.0*30
$GPRMC,180421.170,A,4631.426,N,00633.974,E,009.7,318.0,121125,000.0,W*7E
$GPGGA,180422.170,4631.428,N,00633.971,E,1,12,1.0,0.0,M,0.0,M,,*62
$GPGSA,A,3,01,02,03,04,05,06,07,08,09,10,11,12,1.0,1.0,1.0*30
$GPRMC,180422.170,A,4631.428,N,00633.971,E,009.7,318.0,121125,000.0,W*76
$GPGGA,180423.170,4631.430,N,00633.969,E,1,12,1.0,0.0,M,0.0,M,,*63
$GPGSA,A,3,01,02,03,04,05,06,07,08,09,10,11,12,1.0,1.0,1.0*30
$GPRMC,180423.170,A,4631.430,N,00633.969,E,009.7,318.0,121125,000.0,W*77
$GPGGA,180424.170,4631.432,N,00633.966,E,1,12,1.0,0.0,M,0.0,M,,*69
$GPGSA,A,3,01,02,03,04,05,06,07,08,09,10,11,12,1.0,1.0,1.0*30
$GPRMC,180424.170,A,4631.432,N,00633.966,E,009.7,318.0,121125,000.0,W*7D
