$GPGGA,175136.206,4631.431,N,00633.967,E,1,12,1.0,0.0,M,0.0,M,,*65
$GPGSA,A,3,01,02,03,04,05,06,07,08,09,10,11,12,1.0,1.0,1.0*30
$GPRMC,175136.206,A,4631.431,N,00633.967,E,001.9,269.5,121125,000.0,W*75
$GPGGA,175137.206,4631.431,N,00633.966,E,1,12,1.0,0.0,M,0.0,M,,*65
$GPGSA,A,3,01,02,03,04,05,06,07,08,09,10,11,12,1.0,1.0,1.0*30
$GPRMC,175137.206,A,4631.431,N,00633.966,E,001.9,269.5,121125,000.0,W*75
$GPGGA,175138.206,4631.431,N,00633.965,E,1,12,1.0,0.0,M,0.0,M,,*69
$GPGSA,A,3,01,02,03,04,05,06,07,08,09,10,11,12,1.0,1.0,1.0*30
$GPRMC,175138.206,A,4631.431,N,00633.965,E,001.9,269.5,121125,000.0,W*79
$GPGGA,175139.206,4631.431,N,00633.964,E,1,12,1.0,0.0,M,0.0,M,,*69
$GPGSA,A,3,01,02,03,04,05,06,07,08,09,10,11,12,1.0,1.0,1.0*30
$GPRMC,175139.206,A,4631.431,N,00633.964,E,001.9,269.5,121125,000.0,W*79
$GPGGA,175140.206,4631.431,N,00633.964,E,1,12,1.0,0.0,M,0.0,M,,*67
$GPGSA,A,3,01,02,03,04,05,06,07,08,09,10,11,12,1.0,1.0,1.0*30
$GPRMC,175140.206,A,4631.431,N,00633.964,E,001.9,269.5,121125,000.0,W*77
$GPGGA,175141.206,4631.431,N,00633.963,E,1,12,1.0,0.0,M,0.0,M,,*61
$GPGSA,A,3,01,02,03,04,05,06,07,08,09,10,11,12,1.0,1.0,1.0*30
$GPRMC,175141.206,A,4631.431,N,00633.963,E,001.9,269.5,121125,000.0,W*71
$GPGGA,175142.206,4631.431,N,00633.962,E,1,12,1.0,0.0,M,0.0,M,,*63
$GPGSA,A,3,01,02,03,04,05,06,07,08,09,10,11,12,1.0,1.0,1.0*30
$GPRMC,175142.206,A,4631.431,N,00633.962,E,001.9,269.5,121125,000.0,W*73
$GPGGA,175143.206,4631.431,N,00633.961,E,1,12,1.0,0.0,M,0.0,M,,*61
$GPGSA,A,3,01,02,03,04,05,06,07,08,09,10,11,12,1.0,1.0,1.0*30
$GPRMC,175143.206,A,4631.431,N,00633.961,E,001.9,269.5,121125,000.0,W*71
$GPGGA,175144.206,4631.431,N,00633.960,E,1,12,1.0,0.0,M,0.0,M,,*67
$GPGSA,A,3,01,02,03,04,05,06,07,08,09,10,11,12,1.0,1.0,1.0*30
$GPRMC,175144.206,A,4631.431,N,00633.960,E,001.9,269.5,121125,000.0,W*77
$GPGGA,175145.206,4631.431,N,00633.960,E,1,12,1.0,0.0,M,0.0,M,,*66
$GPGSA,A,3,01,02,03,04,05,06,07,08,09,10,11,12,1.0,1.0,1.0*30
$GPRMC,175145.206,A,4631.431,N,00633.960,E,001.9,269.5,121125,000.0,W*76
$GPGGA,175146.206,4631.431,N,00633.959,E,1,12,1.0,0.0,M,0.0,M,,*6F
$GPGSA,A,3,01,02,03,04,05,06,07,08,09,10,11,12,1.0,1.0,1.0*30
$GPRMC,175146.206,A,4631.431,N,00633.959,E,001.9,269.5,121125,000.0,W*7F
$GPGGA,175147.206,4631.431,N,00633.958,E,1,12,1.0,0.0,M,0.0,M,,*6F
$GPGSA,A,3,01,02,03,04,05,06,07,08,09,10,11,12,1.0,1.0,1.0*30
$GPRMC,175147.206,A,4631.431,N,00633.958,E,001.9,269.5,121125,000.0,W*7F
$GPGGA,175148.206,4631.431,N,00633.957,E,1,12,1.0,0.0,M,0.0,M,,*6F
$GPGSA,A,3,01,02,03,04,05,06,07,08,09,10,11,12,1.0,1.0,1.0*30
$GPRMC,175148.206,A,4631.431,N,00633.957,E,001.9,269.5,121125,000.0,W*7F
$GPGGA,175149.206,4631.431,N,00633.957,E,1,12,1.0,0.0,M,0.0,M,,*6E
$GPGSA,A,3,01,02,03,04,05,06,07,08,09,10,11,12,1.0,1.0,1.0*30
$GPRMC,175149.206,A,4631.431,N,00633.957,E,001.9,269.5,121125,000.0,W*7E
$GPGGA,175150.206,4631.431,N,00633.956,E,1,12,1.0,0.0,M,0.0,M,,*67
$GPGSA,A,3,01,02,03,04,05,06,07,08,09,10,11,12,1.0,1.0,1.0*30
$GPRMC,175150.206,A,4631.431,N,00633.956,E,001.9,269.5,121125,000.0,W*77
$GPGGA,175151.206,4631.431,N,00633.955,E,1,12,1.0,0.0,M,0.0,M,,*65
$GPGSA,A,3,01,02,03,04,05,06,07,08,09,10,11,12,1.0,1.0,1.0*30
$GPRMC,175151.206,A,4631.431,N,00633.955,E,001.9,269.5,121125,000.0,W*75
$GPGGA,175152.206,4631.431,N,00633.954,E,1,12,1.0,0.0,M,0.0,M,,*67
$GPGSA,A,3,01,02,03,04,05,06,07,08,09,10,11,12,1.0,1.0,1.0*30
$GPRMC,175152.206,A,4631.431,N,00633.954,E,001.9,269.5,121125,000.0,W*77
$GPGGA,175153.206,4631.431,N,00633.953,E,1,12,1.0,0.0,M,0.0,M,,*61
$GPGSA,A,3,01,02,03,04,05,06,07,08,09,10,11,12,1.0,1.0,1.0*30
$GPRMC,175153.206,A,4631.431,N,00633.953,E,001.9,269.5,121125,000.0,W*71
$GPGGA,175154.206,4631.431,N,00633.953,E,1,12,1.0,0.0,M,0.0,M,,*66
$GPGSA,A,3,01,02,03,04,05,06,07,08,09,10,11,12,1.0,1.0,1.0*30
$GPRMC,175154.206,A,4631.431,N,00633.953,E,001.9,269.5,121125,000.0,W*76
$GPGGA,175155.206,4631.431,N,00633.952,E,1,12,1.0,0.0,M,0.0,M,,*66
$GPGSA,A,3,01,02,03,04,05,06,07,08,09,10,11,12,1.0,1.0,1.0*30
$GPRMC,175155.206,A,4631.431,N,00633.952,E,001.9,269.5,121125,000.0,W*76
$GPGGA,175156.206,4631.431,N,00633.951,E,1,12,1.0,0.0,M,0.0,M,,*66
$GPGSA,A,3,01,02,03,04,05,06,07,08,09,10,11,12,1.0,1.0,1.0*30
$GPRMC,175156.206,A,4631.431,N,00633.951,E,001.9,269.5,121125,000.0,W*76
$GPGGA,175157.206,4631.431,N,00633.950,E,1,12,1.0,0.0,M,0.0,M,,*66
$GPGSA,A,3,01,02,03,04,05,06,07,08,09,10,11,12,1.0,1.0,1.0*30
$GPRMC,175157.206,A,4631.431,N,00633.950,E,001.9,269.5,121125,000.0,W*76
$GPGGA,175158.206,4631.431,N,00633.949,E,1,12,1.0,0.0,M,0.0,M,,*61
$GPGSA,A,3,01,02,03,04,05,06,07,08,09,10,11,12,1.0,1.0,1.0*30
$GPRMC,175158.206,A,4631.431,N,00633.949,E,001.9,269.5,121125,000.0,W*71
$GPGGA,175159.206,4631.431,N,00633.949,E,1,12,1.0,0.0,M,0.0,M,,*60
$GPGSA,A,3,01,02,03,04,05,06,07,08,09,10,11,12,1.0,1.0,1.0*30
$GPRMC,175159.206,A,4631.431,N,00633.949,E,001.9,269.5,121125,000.0,W*70
$GPGGA,175200.206,4631.431,N,00633.948,E,1,12,1.0,0.0,M,0.0,M,,*6E
$GPGSA,A,3,01,02,03,04,05,06,07,08,09,10,11,12,1.0,1.0,1.0*30
$GPRMC,175200.206,A,4631.431,N,00633.948,E,001.9,269.5,121125,000.0,W*7E
$GPGGA,175201.206,4631.431,N,00633.947,E,1,12,1.0,0.0,M,0.0,M,,*60
$GPGSA,A,3,01,02,03,04,05,06,07,08,09,10,11,12,1.0,1.0,1.0*30
$GPRMC,175201.206,A,4631.431,N,00633.947,E,001.9,269.5,121125,000.0,W*70
$GPGGA,175202.206,4631.431,N,00633.946,E,1,12,1.0,0.0,M,0.0,M,,*62
$GPGSA,A,3,01,02,03,04,05,06,07,08,09,10,11,12,1.0,1.0,1.0*30
$GPRMC,175202.206,A,4631.431,N,00633.946,E,001.9,269.5,121125,000.0,W*72
$GPGGA,175203.206,4631.431,N,00633.946,E,1,12,1.0,0.0,M,0.0,M,,*63
$GPGSA,A,3,01,02,03,04,05,06,07,08,09,10,11,12,1.0,1.0,1.0*30
$GPRMC,175203.206,A,4631.431,N,00633.946,E,001.9,269.5,121125,000.0,W*73
$GPGGA,175204.206,4631.431,N,00633.945,E,1,12,1.0,0.0,M,0.0,M,,*67
$GPGSA,A,3,01,02,03,04,05,06,07,08,09,10,11,12,1.0,1.0,1.0*30
$GPRMC,175204.206,A,4631.431,N,00633.945,E,001.9,269.5,121125,000.0,W*77
$GPGGA,175205.206,4631.431,N,00633.944,E,1,12,1.0,0.0,M,0.0,M,,*67
$GPGSA,A,3,01,02,03,04,05,06,07,08,09,10,11,12,1.0,1.0,1.0*30
$GPRMC,175205.206,A,4631.431,N,00633.944,E,001.9,269.5,121125,000.0,W*77
$GPGGA,175206.206,4631.431,N,00633.943,E,1,12,1.0,0.0,M,0.0,M,,*63
$GPGSA,A,3,01,02,03,04,05,06,07,08,09,10,11,12,1.0,1.0,1.0*30
$GPRMC,175206.206,A,4631.431,N,00633.943,E,001.9,269.5,121125,000.0,W*73
$GPGGA,175207.206,4631.431,N,00633.942,E,1,12,1.0,0.0,M,0.0,M,,*63
$GPGSA,A,3,01,02,03,04,05,06,07,08,09,10,11,12,1.0,1.0,1.0*30
$GPRMC,175207.206,A,4631.431,N,00633.942,E,001.9,269.5,121125,000.0,W*73
$GPGGA,175208.206,4631.431,N,00633.942,E,1,12,1.0,0.0,M,0.0,M,,*6C
$GPGSA,A,3,01,02,03,04,05,06,07,08,09,10,11,12,1.0,1.0,1.0*30
$GPRMC,175208.206,A,4631.431,N,00633.942,E,001.9,269.5,121125,000.0,W*7C
$GPGGA,175209.206,4631.431,N,00633.941,E,1,12,1.0,0.0,M,0.0,M,,*6E
$GPGSA,A,3,01,02,03,04,05,06,07,08,09,10,11,12,1.0,1.0,1.0*30
$GPRMC,175209.206,A,4631.431,N,00633.941,E,001.9,269.5,121125,000.0,W*7E
$GPGGA,175210.206,4631.431,N,00633.940,E,1,12,1.0,0.0,M,0.0,M,,*67
$GPGSA,A,3,01,02,03,04,05,06,07,08,09,10,11,12,1.0,1.0,1.0*30
$GPRMC,175210.206,A,4631.431,N,00633.940,E,001.9,269.5,121125,000.0,W*77
$GPGGA,175211.206,4631.431,N,00633.939,E,1,12,1.0,0.0,M,0.0,M,,*68
$GPGSA,A,3,01,02,03,04,05,06,07,08,09,10,11,12,1.0,1.0,1.0*30
$GPRMC,175211.206,A,4631.431,N,00633.939,E,001.9,269.5,121125,000.0,W*78
$GPGGA,175212.206,4631.431,N,00633.938,E,1,12,1.0,0.0,M,0.0,M,,*6A
$GPGSA,A,3,01,02,03,04,05,06,07,08,09,10,11,12,1.0,1.0,1.0*30
$GPRMC,175212.206,A,4631.431,N,00633.938,E,001.9,269.5,121125,000.0,W*7A
$GPGGA,175213.206,4631.431,N,00633.938,E,1,12,1.0,0.0,M,0.0,M,,*6B
$GPGSA,A,3,01,02,03,04,05,06,07,08,09,10,11,12,1.0,1.0,1.0*30
$GPRMC,175213.206,A,4631.431,N,00633.938,E,001.9,269.5,121125,000.0,W*7B
$GPGGA,175214.206,4631.431,N,00633.937,E,1,12,1.0,0.0,M,0.0,M,,*63
$GPGSA,A,3,01,02,03,04,05,06,07,08,09,10,11,12,1.0,1.0,1.0*30
$GPRMC,175214.206,A,4631.431,N,00633.937,E,001.9,269.5,121125,000.0,W*73
$GPGGA,175215.206,4631.431,N,00633.936,E,1,12,1.0,0.0,M,0.0,M,,*63
$GPGSA,A,3,01,02,03,04,05,06,07,08,09,10,11,12,1.0,1.0,1.0*30
$GPRMC,175215.206,A,4631.431,N,00633.936,E,001.9,269.5,121125,000.0,W*73
$GPGGA,175216.206,4631.431,N,00633.935,E,1,12,1.0,0.0,M,0.0,M,,*63
$GPGSA,A,3,01,02,03,04,05,06,07,08,09,10,11,12,1.0,1.0,1.0*30
$GPRMC,175216.206,A,4631.431,N,00633.935,E,001.9,269.5,121125,000.0,W*73
$GPGGA,175217.206,4631.431,N,00633.935,E,1,12,1.0,0.0,M,0.0,M,,*62
$GPGSA,A,3,01,02,03,04,05,06,07,08,09,10,11,12,1.0,1.0,1.0*30
$GPRMC,175217.206,A,4631.431,N,00633.935,E,001.9,269.5,121125,000.0,W*72
$GPGGA,175218.206,4631.431,N,00633.934,E,1,12,1.0,0.0,M,0.0,M,,*6C
$GPGSA,A,3,01,02,03,04,05,06,07,08,09,10,11,12,1.0,1.0,1.0*30
$GPRMC,175218.206,A,4631.431,N,00633.934,E,001.9,269.5,121125,000.0,W*7C
$GPGGA,175219.206,4631.431,N,00633.933,E,1,12,1.0,0.0,M,0.0,M,,*6A
$GPGSA,A,3,01,02,03,04,05,06,07,08,09,10,11,12,1.0,1.0,1.0*30
$GPRMC,175219.206,A,4631.431,N,00633.933,E,001.9,269.5,121125,000.0,W*7A
$GPGGA,175220.206,4631.431,N,00633.932,E,1,12,1.0,0.0,M,0.0,M,,*61
$GPGSA,A,3,01,02,03,04,05,06,07,08,09,10,11,12,1.0,1.0,1.0*30
$GPRMC,175220.206,A,4631.431,N,00633.932,E,001.9,269.5,121125,000.0,W*71
$GPGGA,175221.206,4631.431,N,00633.931,E,1,12,1.0,0.0,M,0.0,M,,*63
$GPGSA,A,3,01,02,03,04,05,06,07,08,09,10,11,12,1.0,1.0,1.0*30
$GPRMC,175221.206,A,4631.431,N,00633.931,E,001.9,269.5,121125,000.0,W*73
$GPGGA,175222.206,4631.431,N,00633.931,E,1,12,1.0,0.0,M,0.0,M,,*60
$GPGSA,A,3,01,02,03,04,05,06,07,08,09,10,11,12,1.0,1.0,1.0*30
$GPRMC,175222.206,A,4631.431,N,00633.931,E,001.9,269.5,121125,000.0,W*70
$GPGGA,175223.206,4631.431,N,00633.930,E,1,12,1.0,0.0,M,0.0,M,,*60
$GPGSA,A,3,01,02,03,04,05,06,07,08,09,10,11,12,1.0,1.0,1.0*30
$GPRMC,175223.206,A,4631.431,N,00633.930,E,001.9,269.5,121125,000.0,W*70
$GPGGA,175224.206,4631.431,N,00633.929,E,1,12,1.0,0.0,M,0.0,M,,*6F
$GPGSA,A,3,01,02,03,04,05,06,07,08,09,10,11,12,1.0,1.0,1.0*30
$GPRMC,175224.206,A,4631.431,N,00633.929,E,001.9,269.5,121125,000.0,W*7F
$GPGGA,175225.206,4631.431,N,00633.928,E,1,12,1.0,0.0,M,0.0,M,,*6F
$GPGSA,A,3,01,02,03,04,05,06,07,08,09,10,11,12,1.0,1.0,1.0*30
$GPRMC,175225.206,A,4631.431,N,00633.928,E,001.9,269.5,121125,000.0,W*7F
$GPGGA,175226.206,4631.431,N,00633.928,E,1,12,1.0,0.0,M,0.0,M,,*6C
$GPGSA,A,3,01,02,03,04,05,06,07,08,09,10,11,12,1.0,1.0,1.0*30
$GPRMC,175226.206,A,4631.431,N,00633.928,E,001.9,269.5,121125,000.0,W*7C
$GPGGA,175227.206,4631.431,N,00633.927,E,1,12,1.0,0.0,M,0.0,M,,*62
$GPGSA,A,3,01,02,03,04,05,06,07,08,09,10,11,12,1.0,1.0,1.0*30
$GPRMC,175227.206,A,4631.431,N,00633.927,E,001.9,269.5,121125,000.0,W*72
$GPGGA,175228.206,4631.431,N,00633.926,E,1,12,1.0,0.0,M,0.0,M,,*6C
$GPGSA,A,3,01,02,03,04,05,06,07,08,09,10,11,12,1.0,1.0,1.0*30
$GPRMC,175228.206,A,4631.431,N,00633.926,E,001.9,269.5,121125,000.0,W*7C
$GPGGA,175229.206,4631.431,N,00633.925,E,1,12,1.0,0.0,M,0.0,M,,*6E
$GPGSA,A,3,01,02,03,04,05,06,07,08,09,10,11,12,1.0,1.0,1.0*30
$GPRMC,175229.206,A,4631.431,N,00633.925,E,001.9,269.5,121125,000.0,W*7E
$GPGGA,175230.206,4631.431,N,00633.924,E,1,12,1.0,0.0,M,0.0,M,,*67
$GPGSA,A,3,01,02,03,04,05,06,07,08,09,10,11,12,1.0,1.0,1.0*30
$GPRMC,175230.206,A,4631.431,N,00633.924,E,001.9,269.5,121125,000.0,W*77
$GPGGA,175231.206,4631.431,N,00633.924,E,1,12,1.0,0.0,M,0.0,M,,*66
$GPGSA,A,3,01,02,03,04,05,06,07,08,09,10,11,12,1.0,1.0,1.0*30
$GPRMC,175231.206,A,4631.431,N,00633.924,E,001.9,269.5,121125,000.0,W*76
$GPGGA,175232.206,4631.431,N,00633.923,E,1,12,1.0,0.0,M,0.0,M,,*62
$GPGSA,A,3,01,02,03,04,05,06,07,08,09,10,11,12,1.0,1.0,1.0*30
$GPRMC,175232.206,A,4631.431,N,00633.923,E,001.9,269.5,121125,000.0,W*72
$GPGGA,175233.206,4631.431,N,00633.922,E,1,12,1.0,0.0,M,0.0,M,,*62
$GPGSA,A,3,01,02,03,04,05,06,07,08,09,10,11,12,1.0,1.0,1.0*30
$GPRMC,175233.206,A,4631.431,N,00633.922,E,001.9,269.5,121125,000.0,W*72
$GPGGA,175234.206,4631.431,N,00633.921,E,1,12,1.0,0.0,M,0.0,M,,*66
$GPGSA,A,3,01,02,03,04,05,06,07,08,09,10,11,12,1.0,1.0,1.0*30
$GPRMC,175234.206,A,4631.431,N,00633.921,E,001.9,269.5,121125,000.0,W*76
$GPGGA,175235.206,4631.431,N,00633.920,E,1,12,1.0,0.0,M,0.0,M,,*66
$GPGSA,A,3,01,02,03,04,05,06,07,08,09,10,11,12,1.0,1.0,1.0*30
$GPRMC,175235.206,A,4631.431,N,00633.920,E,001.9,269.5,121125,000.0,W*76
$GPGGA,175236.206,4631.431,N,00633.920,E,1,12,1.0,0.0,M,0.0,M,,*65
$GPGSA,A,3,01,02,03,04,05,06,07,08,09,10,11,12,1.0,1.0,1.0*30
$GPRMC,175236.206,A,4631.431,N,00633.920,E,001.9,269.5,121125,000.0,W*75
$GPGGA,175237.206,4631.431,N,00633.919,E,1,12,1.0,0.0,M,0.0,M,,*6E
$GPGSA,A,3,01,02,03,04,05,06,07,08,09,10,11,12,1.0,1.0,1.0*30
$GPRMC,175237.206,A,4631.431,N,00633.919,E,001.9,269.5,121125,000.0,W*7E
$GPGGA,175238.206,4631.431,N,00633.918,E,1,12,1.0,0.0,M,0.0,M,,*60
$GPGSA,A,3,01,02,03,04,05,06,07,08,09,10,11,12,1.0,1.0,1.0*30
$GPRMC,175238.206,A,4631.431,N,00633.918,E,001.9,269.5,121125,000.0,W*70
$GPGGA,175239.206,4631.431,N,00633.917,E,1,12,1.0,0.0,M,0.0,M,,*6E
$GPGSA,A,3,01,02,03,04,05,06,07,08,09,10,11,12,1.0,1.0,1.0*30
$GPRMC,175239.206,A,4631.431,N,00633.917,E,001.9,269.5,121125,000.0,W*7E
$GPGGA,175240.206,4631.431,N,00633.917,E,1,12,1.0,0.0,M,0.0,M,,*60
$GPGSA,A,3,01,02,03,04,05,06,07,08,09,10,11,12,1.0,1.0,1.0*30
$GPRMC,175240.206,A,4631.431,N,00633.917,E,001.9,269.5,121125,000.0,W*70
$GPGGA,175241.206,4631.431,N,00633.916,E,1,12,1.0,0.0,M,0.0,M,,*60
$GPGSA,A,3,01,02,03,04,05,06,07,08,09,10,11,12,1.0,1.0,1.0*30
$GPRMC,175241.206,A,4631.431,N,00633.916,E,001.9,269.5,121125,000.0,W*70
$GPGGA,175242.206,4631.431,N,00633.915,E,1,12,1.0,0.0,M,0.0,M,,*60
$GPGSA,A,3,01,02,03,04,05,06,07,08,09,10,11,12,1.0,1.0,1.0*30
$GPRMC,175242.206,A,4631.431,N,00633.915,E,001.9,269.5,121125,000.0,W*70
$GPGGA,175243.206,4631.431,N,00633.914,E,1,12,1.0,0.0,M,0.0,M,,*60
$GPGSA,A,3,01,02,03,04,05,06,07,08,09,10,11,12,1.0,1.0,1.0*30
$GPRMC,175243.206,A,4631.431,N,00633.914,E,001.9,269.5,121125,000.0,W*70
$GPGGA,175244.206,4631.431,N,00633.913,E,1,12,1.0,0.0,M,0.0,M,,*60
$GPGSA,A,3,01,02,03,04,05,06,07,08,09,10,11,12,1.0,1.0,1.0*30
$GPRMC,175244.206,A,4631.431,N,00633.913,E,001.9,269.5,121125,000.0,W*70
$GPGGA,175245.206,4631.431,N,00633.913,E,1,12,1.0,0.0,M,0.0,M,,*61
$GPGSA,A,3,01,02,03,04,05,06,07,08,09,10,11,12,1.0,1.0,1.0*30
$GPRMC,175245.206,A,4631.431,N,00633.913,E,001.9,269.5,121125,000.0,W*71
$GPGGA,175246.206,4631.431,N,00633.912,E,1,12,1.0,0.0,M,0.0,M,,*63
$GPGSA,A,3,01,02,03,04,05,06,07,08,09,10,11,12,1.0,1.0,1.0*30
$GPRMC,175246.206,A,4631.431,N,00633.912,E,001.9,269.5,121125,000.0,W*73
$GPGGA,175247.206,4631.431,N,00633.911,E,1,12,1.0,0.0,M,0.0,M,,*61
$GPGSA,A,3,01,02,03,04,05,06,07,08,09,10,11,12,1.0,1.0,1.0*30
$GPRMC,175247.206,A,4631.431,N,00633.911,E,001.9,269.5,121125,000.0,W*71
$GPGGA,175248.206,4631.431,N,00633.910,E,1,12,1.0,0.0,M,0.0,M,,*6F
$GPGSA,A,3,01,02,03,04,05,06,07,08,09,10,11,12,1.0,1.0,1.0*30
$GPRMC,175248.206,A,4631.431,N,00633.910,E,001.9,269.5,121125,000.0,W*7F
$GPGGA,175249.206,4631.431,N,00633.909,E,1,12,1.0,0.0,M,0.0,M,,*66
$GPGSA,A,3,01,02,03,04,05,06,07,08,09,10,11,12,1.0,1.0,1.0*30
$GPRMC,175249.206,A,4631.431,N,00633.909,E,001.9,269.5,121125,000.0,W*76
$GPGGA,175250.206,4631.431,N,00633.909,E,1,12,1.0,0.0,M,0.0,M,,*6E
$GPGSA,A,3,01,02,03,04,05,06,07,08,09,10,11,12,1.0,1.0,1.0*30
$GPRMC,175250.206,A,4631.431,N,00633.909,E,001.9,269.5,121125,000.0,W*7E
$GPGGA,175251.206,4631.431,N,00633.908,E,1,12,1.0,0.0,M,0.0,M,,*6E
$GPGSA,A,3,01,02,03,04,05,06,07,08,09,10,11,12,1.0,1.0,1.0*30
$GPRMC,175251.206,A,4631.431,N,00633.908,E,001.9,269.5,121125,000.0,W*7E
$GPGGA,175252.206,4631.431,N,00633.907,E,1,12,1.0,0.0,M,0.0,M,,*62
$GPGSA,A,3,01,02,03,04,05,06,07,08,09,10,11,12,1.0,1.0,1.0*30
$GPRMC,175252.206,A,4631.431,N,00633.907,E,001.9,269.5,121125,000.0,W*72
$GPGGA,175253.206,4631.431,N,00633.906,E,1,12,1.0,0.0,M,0.0,M,,*62
$GPGSA,A,3,01,02,03,04,05,06,07,08,09,10,11,12,1.0,1.0,1.0*30
$GPRMC,175253.206,A,4631.431,N,00633.906,E,001.9,269.5,121125,000.0,W*72
$GPGGA,175254.206,4631.431,N,00633.906,E,1,12,1.0,0.0,M,0.0,M,,*65
$GPGSA,A,3,01,02,03,04,05,06,07,08,09,10,11,12,1.0,1.0,1.0*30
$GPRMC,175254.206,A,4631.431,N,00633.906,E,001.9,269.5,121125,000.0,W*75
$GPGGA,175255.206,4631.430,N,00633.905,E,1,12,1.0,0.0,M,0.0,M,,*66
$GPGSA,A,3,01,02,03,04,05,06,07,08,09,10,11,12,1.0,1.0,1.0*30
$GPRMC,175255.206,A,4631.430,N,00633.905,E,001.9,269.5,121125,000.0,W*76
$GPGGA,175256.206,4631.430,N,00633.904,E,1,12,1.0,0.0,M,0.0,M,,*64
$GPGSA,A,3,01,02,03,04,05,06,07,08,09,10,11,12,1.0,1.0,1.0*30
$GPRMC,175256.206,A,4631.430,N,00633.904,E,001.9,269.5,121125,000.0,W*74
$GPGGA,175257.206,4631.430,N,00633.903,E,1,12,1.0,0.0,M,0.0,M,,*62
$GPGSA,A,3,01,02,03,04,05,06,07,08,09,10,11,12,1.0,1.0,1.0*30
$GPRMC,175257.206,A,4631.430,N,00633.903,E,001.9,269.5,121125,000.0,W*72
$GPGGA,175258.206,4631.430,N,00633.902,E,1,12,1.0,0.0,M,0.0,M,,*6C
$GPGSA,A,3,01,02,03,04,05,06,07,08,09,10,11,12,1.0,1.0,1.0*30
$GPRMC,175258.206,A,4631.430,N,00633.902,E,001.9,269.5,121125,000.0,W*7C
$GPGGA,175259.206,4631.430,N,00633.902,E,1,12,1.0,0.0,M,0.0,M,,*6D
$GPGSA,A,3,01,02,03,04,05,06,07,08,09,10,11,12,1.0,1.0,1.0*30
$GPRMC,175259.206,A,4631.430,N,00633.902,E,001.9,269.5,121125,000.0,W*7D
$GPGGA,175300.206,4631.430,N,00633.901,E,1,12,1.0,0.0,M,0.0,M,,*63
$GPGSA,A,3,01,02,03,04,05,06,07,08,09,10,11,12,1.0,1.0,1.0*30
$GPRMC,175300.206,A,4631.430,N,00633.901,E,001.9,269.5,121125,000.0,W*73
$GPGGA,175301.206,4631.430,N,00633.900,E,1,12,1.0,0.0,M,0.0,M,,*63
$GPGSA,A,3,01,02,03,04,05,06,07,08,09,10,11,12,1.0,1.0,1.0*30
$GPRMC,175301.206,A,4631.430,N,00633.900,E,001.9,269.5,121125,000.0,W*73
$GPGGA,175302.206,4631.430,N,00633.899,E,1,12,1.0,0.0,M,0.0,M,,*61
$GPGSA,A,3,01,02,03,04,05,06,07,08,09,10,11,12,1.0,1.0,1.0*30
$GPRMC,175302.206,A,4631.430,N,00633.899,E,001.9,269.5,121125,000.0,W*71
$GPGGA,175303.206,4631.430,N,00633.898,E,1,12,1.0,0.0,M,0.0,M,,*61
$GPGSA,A,3,01,02,03,04,05,06,07,08,09,10,11,12,1.0,1.0,1.0*30
$GPRMC,175303.206,A,4631.430,N,00633.898,E,001.9,269.5,121125,000.0,W*71
$GPGGA,175304.206,4631.430,N,00633.898,E,1,12,1.0,0.0,M,0.0,M,,*66
$GPGSA,A,3,01,02,03,04,05,06,07,08,09,10,11,12,1.0,1.0,1.0*30
$GPRMC,175304.206,A,4631.430,N,00633.898,E,001.9,269.5,121125,000.0,W*76
$GPGGA,175305.206,4631.430,N,00633.897,E,1,12,1.0,0.0,M,0.0,M,,*68
$GPGSA,A,3,01,02,03,04,05,06,07,08,09,10,11,12,1.0,1.0,1.0*30
$GPRMC,175305.206,A,4631.430,N,00633.897,E,001.9,269.5,121125,000.0,W*78
$GPGGA,175306.206,4631.430,N,00633.896,E,1,12,1.0,0.0,M,0.0,M,,*6A
$GPGSA,A,3,01,02,03,04,05,06,07,08,09,10,11,12,1.0,1.0,1.0*30
$GPRMC,175306.206,A,4631.430,N,00633.896,E,001.9,269.5,121125,000.0,W*7A
$GPGGA,175307.206,4631.430,N,00633.895,E,1,12,1.0,0.0,M,0.0,M,,*68
$GPGSA,A,3,01,02,03,04,05,06,07,08,09,10,11,12,1.0,1.0,1.0*30
$GPRMC,175307.206,A,4631.430,N,00633.895,E,001.9,269.5,121125,000.0,W*78
$GPGGA,175308.206,4631.430,N,00633.895,E,1,12,1.0,0.0,M,0.0,M,,*67
$GPGSA,A,3,01,02,03,04,05,06,07,08,09,10,11,12,1.0,1.0,1.0*30
$GPRMC,175308.206,A,4631.430,N,00633.895,E,001.9,269.5,121125,000.0,W*77
$GPGGA,175309.206,4631.430,N,00633.894,E,1,12,1.0,0.0,M,0.0,M,,*67
$GPGSA,A,3,01,02,03,04,05,06,07,08,09,10,11,12,1.0,1.0,1.0*30
$GPRMC,175309.206,A,4631.430,N,00633.894,E,001.9,269.5,121125,000.0,W*77
$GPGGA,175310.206,4631.430,N,00633.893,E,1,12,1.0,0.0,M,0.0,M,,*68
$GPGSA,A,3,01,02,03,04,05,06,07,08,09,10,11,12,1.0,1.0,1.0*30
$GPRMC,175310.206,A,4631.430,N,00633.893,E,001.9,269.5,121125,000.0,W*78
$GPGGA,175311.206,4631.430,N,00633.892,E,1,12,1.0,0.0,M,0.0,M,,*68
$GPGSA,A,3,01,02,03,04,05,06,07,08,09,10,11,12,1.0,1.0,1.0*30
$GPRMC,175311.206,A,4631.430,N,00633.892,E,001.9,269.5,121125,000.0,W*78
$GPGGA,175312.206,4631.430,N,00633.891,E,1,12,1.0,0.0,M,0.0,M,,*68
$GPGSA,A,3,01,02,03,04,05,06,07,08,09,10,11,12,1.0,1.0,1.0*30
$GPRMC,175312.206,A,4631.430,N,00633.891,E,001.9,268.6,121125,000.0,W*7A
$GPGGA,175313.206,4631.430,N,00633.891,E,1,12,1.0,0.0,M,0.0,M,,*69
$GPGSA,A,3,01,02,03,04,05,06,07,08,09,10,11,12,1.0,1.0,1.0*30
$GPRMC,175313.206,A,4631.430,N,00633.891,E,001.9,268.6,121125,000.0,W*7B
$GPGGA,175314.206,4631.430,N,00633.890,E,1,12,1.0,0.0,M,0.0,M,,*6F
$GPGSA,A,3,01,02,03,04,05,06,07,08,09,10,11,12,1.0,1.0,1.0*30
$GPRMC,175314.206,A,4631.430,N,00633.890,E,001.9,268.6,121125,000.0,W*7D
$GPGGA,175315.206,4631.430,N,00633.889,E,1,12,1.0,0.0,M,0.0,M,,*66
$GPGSA,A,3,01,02,03,04,05,06,07,08,09,10,11,12,1.0,1.0,1.0*30
$GPRMC,175315.206,A,4631.430,N,00633.889,E,001.9,268.6,121125,000.0,W*74
$GPGGA,175316.206,4631.430,N,00633.888,E,1,12,1.0,0.0,M,0.0,M,,*64
$GPGSA,A,3,01,02,03,04,05,06,07,08,09,10,11,12,1.0,1.0,1.0*30
$GPRMC,175316.206,A,4631.430,N,00633.888,E,001.9,268.6,121125,000.0,W*76
$GPGGA,175317.206,4631.430,N,00633.888,E,1,12,1.0,0.0,M,0.0,M,,*65
$GPGSA,A,3,01,02,03,04,05,06,07,08,09,10,11,12,1.0,1.0,1.0*30
$GPRMC,175317.206,A,4631.430,N,00633.888,E,001.9,268.6,121125,000.0,W*77
$GPGGA,175318.206,4631.430,N,00633.887,E,1,12,1.0,0.0,M,0.0,M,,*65
$GPGSA,A,3,01,02,03,04,05,06,07,08,09,10,11,12,1.0,1.0,1.0*30
$GPRMC,175318.206,A,4631.430,N,00633.887,E,001.9,268.6,121125,000.0,W*77
$GPGGA,175319.206,4631.430,N,00633.886,E,1,12,1.0,0.0,M,0.0,M,,*65
$GPGSA,A,3,01,02,03,04,05,06,07,08,09,10,11,12,1.0,1.0,1.0*30
$GPRMC,175319.206,A,4631.430,N,00633.886,E,001.9,268.6,121125,000.0,W*77
$GPGGA,175320.206,4631.430,N,00633.885,E,1,12,1.0,0.0,M,0.0,M,,*6C
$GPGSA,A,3,01,02,03,04,05,06,07,08,09,10,11,12,1.0,1.0,1.0*30
$GPRMC,175320.206,A,4631.430,N,00633.885,E,001.9,268.6,121125,000.0,W*7E
$GPGGA,175321.206,4631.430,N,00633.884,E,1,12,1.0,0.0,M,0.0,M,,*6C
$GPGSA,A,3,01,02,03,04,05,06,07,08,09,10,11,12,1.0,1.0,1.0*30
$GPRMC,175321.206,A,4631.430,N,00633.884,E,001.9,268.6,121125,000.0,W*7E
$GPGGA,175322.206,4631.430,N,00633.884,E,1,12,1.0,0.0,M,0.0,M,,*6F
$GPGSA,A,3,01,02,03,04,05,06,07,08,09,10,11,12,1.0,1.0,1.0*30
$GPRMC,175322.206,A,4631.430,N,00633.884,E,001.9,268.6,121125,000.0,W*7D
$GPGGA,175323.206,4631.430,N,00633.883,E,1,12,1.0,0.0,M,0.0,M,,*69
$GPGSA,A,3,01,02,03,04,05,06,07,08,09,10,11,12,1.0,1.0,1.0*30
$GPRMC,175323.206,A,4631.430,N,00633.883,E,001.9,268.6,121125,000.0,W*7B
$GPGGA,175324.206,4631.430,N,00633.882,E,1,12,1.0,0.0,M,0.0,M,,*6F
$GPGSA,A,3,01,02,03,04,05,06,07,08,09,10,11,12,1.0,1.0,1.0*30
$GPRMC,175324.206,A,4631.430,N,00633.882,E,001.9,268.6,121125,000.0,W*7D
$GPGGA,175325.206,4631.430,N,00633.881,E,1,12,1.0,0.0,M,0.0,M,,*6D
$GPGSA,A,3,01,02,03,04,05,06,07,08,09,10,11,12,1.0,1.0,1.0*30
$GPRMC,175325.206,A,4631.430,N,00633.881,E,001.9,268.6,121125,000.0,W*7F
$GPGGA,175326.206,4631.430,N,00633.880,E,1,12,1.0,0.0,M,0.0,M,,*6F
$GPGSA,A,3,01,02,03,04,05,06,07,08,09,10,11,12,1.0,1.0,1.0*30
$GPRMC,175326.206,A,4631.430,N,00633.880,E,001.9,268.6,121125,000.0,W*7D
$GPGGA,175327.206,4631.430,N,00633.880,E,1,12,1.0,0.0,M,0.0,M,,*6E
$GPGSA,A,3,01,02,03,04,05,06,07,08,09,10,11,12,1.0,1.0,1.0*30
$GPRMC,175327.206,A,4631.430,N,00633.880,E,001.9,268.6,121125,000.0,W*7C
$GPGGA,175328.206,4631.430,N,00633.879,E,1,12,1.0,0.0,M,0.0,M,,*67
$GPGSA,A,3,01,02,03,04,05,06,07,08,09,10,11,12,1.0,1.0,1.0*30
$GPRMC,175328.206,A,4631.430,N,00633.879,E,001.9,268.6,121125,000.0,W*75
$GPGGA,175329.206,4631.430,N,00633.878,E,1,12,1.0,0.0,M,0.0,M,,*67
$GPGSA,A,3,01,02,03,04,05,06,07,08,09,10,11,12,1.0,1.0,1.0*30
$GPRMC,175329.206,A,4631.430,N,00633.878,E,001.9,251.3,121125,000.0,W*7A
$GPGGA,175330.206,4631.430,N,00633.877,E,1,12,1.0,0.0,M,0.0,M,,*60
$GPGSA,A,3,01,02,03,04,05,06,07,08,09,10,11,12,1.0,1.0,1.0*30
$GPRMC,175330.206,A,4631.430,N,00633.877,E,001.9,251.3,121125,000.0,W*7D
$GPGGA,175331.206,4631.430,N,00633.877,E,1,12,1.0,0.0,M,0.0,M,,*61
$GPGSA,A,3,01,02,03,04,05,06,07,08,09,10,11,12,1.0,1.0,1.0*30
$GPRMC,175331.206,A,4631.430,N,00633.877,E,001.9,251.3,121125,000.0,W*7C
$GPGGA,175332.206,4631.430,N,00633.876,E,1,12,1.0,0.0,M,0.0,M,,*63
$GPGSA,A,3,01,02,03,04,05,06,07,08,09,10,11,12,1.0,1.0,1.0*30
$GPRMC,175332.206,A,4631.430,N,00633.876,E,001.9,251.3,121125,000.0,W*7E
$GPGGA,175333.206,4631.430,N,00633.875,E,1,12,1.0,0.0,M,0.0,M,,*61
$GPGSA,A,3,01,02,03,04,05,06,07,08,09,10,11,12,1.0,1.0,1.0*30
$GPRMC,175333.206,A,4631.430,N,00633.875,E,001.9,251.3,121125,000.0,W*7C
$GPGGA,175334.206,4631.429,N,00633.874,E,1,12,1.0,0.0,M,0.0,M,,*6F
$GPGSA,A,3,01,02,03,04,05,06,07,08,09,10,11,12,1.0,1.0,1.0*30
$GPRMC,175334.206,A,4631.429,N,00633.874,E,001.9,251.3,121125,000.0,W*72
$GPGGA,175335.206,4631.429,N,00633.874,E,1,12,1.0,0.0,M,0.0,M,,*6E
$GPGSA,A,3,01,02,03,04,05,06,07,08,09,10,11,12,1.0,1.0,1.0*30
$GPRMC,175335.206,A,4631.429,N,00633.874,E,001.9,251.3,121125,000.0,W*73
$GPGGA,175336.206,4631.429,N,00633.873,E,1,12,1.0,0.0,M,0.0,M,,*6A
$GPGSA,A,3,01,02,03,04,05,06,07,08,09,10,11,12,1.0,1.0,1.0*30
$GPRMC,175336.206,A,4631.429,N,00633.873,E,001.9,251.3,121125,000.0,W*77
$GPGGA,175337.206,4631.429,N,00633.872,E,1,12,1.0,0.0,M,0.0,M,,*6A
$GPGSA,A,3,01,02,03,04,05,06,07,08,09,10,11,12,1.0,1.0,1.0*30
$GPRMC,175337.206,A,4631.429,N,00633.872,E,001.9,244.8,121125,000.0,W*78
$GPGGA,175338.206,4631.429,N,00633.871,E,1,12,1.0,0.0,M,0.0,M,,*66
$GPGSA,A,3,01,02,03,04,05,06,07,08,09,10,11,12,1.0,1.0,1.0*30
$GPRMC,175338.206,A,4631.429,N,00633.871,E,001.9,244.8,121125,000.0,W*74
$GPGGA,175339.206,4631.428,N,00633.871,E,1,12,1.0,0.0,M,0.0,M,,*66
$GPGSA,A,3,01,02,03,04,05,06,07,08,09,10,11,12,1.0,1.0,1.0*30
$GPRMC,175339.206,A,4631.428,N,00633.871,E,001.9,244.8,121125,000.0,W*74
$GPGGA,175340.206,4631.428,N,00633.870,E,1,12,1.0,0.0,M,0.0,M,,*69
$GPGSA,A,3,01,02,03,04,05,06,07,08,09,10,11,12,1.0,1.0,1.0*30
$GPRMC,175340.206,A,4631.428,N,00633.870,E,001.9,244.8,121125,000.0,W*7B
$GPGGA,175341.206,4631.428,N,00633.869,E,1,12,1.0,0.0,M,0.0,M,,*60
$GPGSA,A,3,01,02,03,04,05,06,07,08,09,10,11,12,1.0,1.0,1.0*30
$GPRMC,175341.206,A,4631.428,N,00633.869,E,001.9,244.8,121125,000.0,W*72
$GPGGA,175342.206,4631.428,N,00633.869,E,1,12,1.0,0.0,M,0.0,M,,*63
$GPGSA,A,3,01,02,03,04,05,06,07,08,09,10,11,12,1.0,1.0,1.0*30
$GPRMC,175342.206,A,4631.428,N,00633.869,E,001.9,238.4,121125,000.0,W*76
$GPGGA,175343.206,4631.427,N,00633.868,E,1,12,1.0,0.0,M,0.0,M,,*6C
$GPGSA,A,3,01,02,03,04,05,06,07,08,09,10,11,12,1.0,1.0,1.0*30
$GPRMC,175343.206,A,4631.427,N,00633.868,E,001.9,238.4,121125,000.0,W*79
$GPGGA,175344.206,4631.427,N,00633.867,E,1,12,1.0,0.0,M,0.0,M,,*64
$GPGSA,A,3,01,02,03,04,05,06,07,08,09,10,11,12,1.0,1.0,1.0*30
$GPRMC,175344.206,A,4631.427,N,00633.867,E,001.9,238.4,121125,000.0,W*71
$GPGGA,175345.206,4631.427,N,00633.867,E,1,12,1.0,0.0,M,0.0,M,,*65
$GPGSA,A,3,01,02,03,04,05,06,07,08,09,10,11,12,1.0,1.0,1.0*30
$GPRMC,175345.206,A,4631.427,N,00633.867,E,001.9,238.4,121125,000.0,W*70
$GPGGA,175346.206,4631.427,N,00633.866,E,1,12,1.0,0.0,M,0.0,M,,*67
$GPGSA,A,3,01,02,03,04,05,06,07,08,09,10,11,12,1.0,1.0,1.0*30
$GPRMC,175346.206,A,4631.427,N,00633.866,E,001.9,238.4,121125,000.0,W*72
$GPGGA,175347.206,4631.426,N,00633.865,E,1,12,1.0,0.0,M,0.0,M,,*64
$GPGSA,A,3,01,02,03,04,05,06,07,08,09,10,11,12,1.0,1.0,1.0*30
$GPRMC,175347.206,A,4631.426,N,00633.865,E,001.9,238.4,121125,000.0,W*71
$GPGGA,175348.206,4631.426,N,00633.865,E,1,12,1.0,0.0,M,0.0,M,,*6B
$GPGSA,A,3,01,02,03,04,05,06,07,08,09,10,11,12,1.0,1.0,1.0*30
$GPRMC,175348.206,A,4631.426,N,00633.865,E,001.9,238.4,121125,000.0,W*7E
$GPGGA,175349.206,4631.426,N,00633.864,E,1,12,1.0,0.0,M,0.0,M,,*6B
$GPGSA,A,3,01,02,03,04,05,06,07,08,09,10,11,12,1.0,1.0,1.0*30
$GPRMC,175349.206,A,4631.426,N,00633.864,E,001.9,238.4,121125,000.0,W*7E
$GPGGA,175350.206,4631.425,N,00633.863,E,1,12,1.0,0.0,M,0.0,M,,*67
$GPGSA,A,3,01,02,03,04,05,06,07,08,09,10,11,12,1.0,1.0,1.0*30
$GPRMC,175350.206,A,4631.425,N,00633.863,E,001.9,210.5,121125,000.0,W*79
$GPGGA,175351.206,4631.425,N,00633.863,E,1,12,1.0,0.0,M,0.0,M,,*66
$GPGSA,A,3,01,02,03,04,05,06,07,08,09,10,11,12,1.0,1.0,1.0*30
$GPRMC,175351.206,A,4631.425,N,00633.863,E,001.9,210.5,121125,000.0,W*78
$GPGGA,175352.206,4631.424,N,00633.862,E,1,12,1.0,0.0,M,0.0,M,,*65
$GPGSA,A,3,01,02,03,04,05,06,07,08,09,10,11,12,1.0,1.0,1.0*30
$GPRMC,175352.206,A,4631.424,N,00633.862,E,001.9,210.5,121125,000.0,W*7B
$GPGGA,175353.206,4631.424,N,00633.862,E,1,12,1.0,0.0,M,0.0,M,,*64
$GPGSA,A,3,01,02,03,04,05,06,07,08,09,10,11,12,1.0,1.0,1.0*30
$GPRMC,175353.206,A,4631.424,N,00633.862,E,001.9,210.5,121125,000.0,W*7A
$GPGGA,175354.206,4631.424,N,00633.862,E,1,12,1.0,0.0,M,0.0,M,,*63
$GPGSA,A,3,01,02,03,04,05,06,07,08,09,10,11,12,1.0,1.0,1.0*30
$GPRMC,175354.206,A,4631.424,N,00633.862,E,001.9,210.5,121125,000.0,W*7D
$GPGGA,175355.206,4631.423,N,00633.861,E,1,12,1.0,0.0,M,0.0,M,,*66
$GPGSA,A,3,01,02,03,04,05,06,07,08,09,10,11,12,1.0,1.0,1.0*30
$GPRMC,175355.206,A,4631.423,N,00633.861,E,001.9,210.5,121125,000.0,W*78
$GPGGA,175356.206,4631.423,N,00633.861,E,1,12,1.0,0.0,M,0.0,M,,*65
$GPGSA,A,3,01,02,03,04,05,06,07,08,09,10,11,12,1.0,1.0,1.0*30
$GPRMC,175356.206,A,4631.423,N,00633.861,E,001.9,210.5,121125,000.0,W*7B
$GPGGA,175357.206,4631.422,N,00633.860,E,1,12,1.0,0.0,M,0.0,M,,*64
$GPGSA,A,3,01,02,03,04,05,06,07,08,09,10,11,12,1.0,1.0,1.0*30
$GPRMC,175357.206,A,4631.422,N,00633.860,E,001.9,210.5,121125,000.0,W*7A
$GPGGA,175358.206,4631.422,N,00633.860,E,1,12,1.0,0.0,M,0.0,M,,*6B
$GPGSA,A,3,01,02,03,04,05,06,07,08,09,10,11,12,1.0,1.0,1.0*30
$GPRMC,175358.206,A,4631.422,N,00633.860,E,001.9,210.5,121125,000.0,W*75
$GPGGA,175359.206,4631.421,N,00633.860,E,1,12,1.0,0.0,M,0.0,M,,*69
$GPGSA,A,3,01,02,03,04,05,06,07,08,09,10,11,12,1.0,1.0,1.0*30
$GPRMC,175359.206,A,4631.421,N,00633.860,E,001.9,210.5,121125,000.0,W*77
$GPGGA,175400.206,4631.421,N,00633.859,E,1,12,1.0,0.0,M,0.0,M,,*68
$GPGSA,A,3,01,02,03,04,05,06,07,08,09,10,11,12,1.0,1.0,1.0*30
$GPRMC,175400.206,A,4631.421,N,00633.859,E,001.9,213.2,121125,000.0,W*72
$GPGGA,175401.206,4631.420,N,00633.859,E,1,12,1.0,0.0,M,0.0,M,,*68
$GPGSA,A,3,01,02,03,04,05,06,07,08,09,10,11,12,1.0,1.0,1.0*30
$GPRMC,175401.206,A,4631.420,N,00633.859,E,001.9,213.2,121125,000.0,W*72
$GPGGA,175402.206,4631.420,N,00633.858,E,1,12,1.0,0.0,M,0.0,M,,*6A
$GPGSA,A,3,01,02,03,04,05,06,07,08,09,10,11,12,1.0,1.0,1.0*30
$GPRMC,175402.206,A,4631.420,N,00633.858,E,001.9,213.2,121125,000.0,W*70
$GPGGA,175403.206,4631.419,N,00633.858,E,1,12,1.0,0.0,M,0.0,M,,*61
$GPGSA,A,3,01,02,03,04,05,06,07,08,09,10,11,12,1.0,1.0,1.0*30
$GPRMC,175403.206,A,4631.419,N,00633.858,E,001.9,213.2,121125,000.0,W*7B
$GPGGA,175404.206,4631.419,N,00633.858,E,1,12,1.0,0.0,M,0.0,M,,*66
$GPGSA,A,3,01,02,03,04,05,06,07,08,09,10,11,12,1.0,1.0,1.0*30
$GPRMC,175404.206,A,4631.419,N,00633.858,E,001.9,213.2,121125,000.0,W*7C
$GPGGA,175405.206,4631.419,N,00633.857,E,1,12,1.0,0.0,M,0.0,M,,*68
$GPGSA,A,3,01,02,03,04,05,06,07,08,09,10,11,12,1.0,1.0,1.0*30
$GPRMC,175405.206,A,4631.419,N,00633.857,E,001.9,213.2,121125,000.0,W*72
$GPGGA,175406.206,4631.418,N,00633.857,E,1,12,1.0,0.0,M,0.0,M,,*6A
$GPGSA,A,3,01,02,03,04,05,06,07,08,09,10,11,12,1.0,1.0,1.0*30
$GPRMC,175406.206,A,4631.418,N,00633.857,E,001.9,213.2,121125,000.0,W*70
$GPGGA,175407.206,4631.418,N,00633.856,E,1,12,1.0,0.0,M,0.0,M,,*6A
$GPGSA,A,3,01,02,03,04,05,06,07,08,09,10,11,12,1.0,1.0,1.0*30
$GPRMC,175407.206,A,4631.418,N,00633.856,E,001.9,213.2,121125,000.0,W*70
$GPGGA,175408.206,4631.417,N,00633.856,E,1,12,1.0,0.0,M,0.0,M,,*6A
$GPGSA,A,3,01,02,03,04,05,06,07,08,09,10,11,12,1.0,1.0,1.0*30
$GPRMC,175408.206,A,4631.417,N,00633.856,E,001.9,213.2,121125,000.0,W*70
$GPGGA,175409.206,4631.417,N,00633.855,E,1,12,1.0,0.0,M,0.0,M,,*68
$GPGSA,A,3,01,02,03,04,05,06,07,08,09,10,11,12,1.0,1.0,1.0*30
$GPRMC,175409.206,A,4631.417,N,00633.855,E,001.9,213.2,121125,000.0,W*72
$GPGGA,175410.206,4631.416,N,00633.855,E,1,12,1.0,0.0,M,0.0,M,,*61
$GPGSA,A,3,01,02,03,04,05,06,07,08,09,10,11,12,1.0,1.0,1.0*30
$GPRMC,175410.206,A,4631.416,N,00633.855,E,001.9,213.2,121125,000.0,W*7B
$GPGGA,175411.206,4631.416,N,00633.855,E,1,12,1.0,0.0,M,0.0,M,,*60
$GPGSA,A,3,01,02,03,04,05,06,07,08,09,10,11,12,1.0,1.0,1.0*30
$GPRMC,175411.206,A,4631.416,N,00633.855,E,001.9,213.2,121125,000.0,W*7A
$GPGGA,175412.206,4631.415,N,00633.854,E,1,12,1.0,0.0,M,0.0,M,,*61
$GPGSA,A,3,01,02,03,04,05,06,07,08,09,10,11,12,1.0,1.0,1.0*30
$GPRMC,175412.206,A,4631.415,N,00633.854,E,001.9,213.2,121125,000.0,W*7B
$GPGGA,175413.206,4631.415,N,00633.854,E,1,12,1.0,0.0,M,0.0,M,,*60
$GPGSA,A,3,01,02,03,04,05,06,07,08,09,10,11,12,1.0,1.0,1.0*30
$GPRMC,175413.206,A,4631.415,N,00633.854,E,001.9,213.2,121125,000.0,W*7A
$GPGGA,175414.206,4631.414,N,00633.853,E,1,12,1.0,0.0,M,0.0,M,,*61
$GPGSA,A,3,01,02,03,04,05,06,07,08,09,10,11,12,1.0,1.0,1.0*30
$GPRMC,175414.206,A,4631.414,N,00633.853,E,001.9,203.3,121125,000.0,W*7B
$GPGGA,175415.206,4631.414,N,00633.853,E,1,12,1.0,0.0,M,0.0,M,,*60
$GPGSA,A,3,01,02,03,04,05,06,07,08,09,10,11,12,1.0,1.0,1.0*30
$GPRMC,175415.206,A,4631.414,N,00633.853,E,001.9,203.3,121125,000.0,W*7A
$GPGGA,175416.206,4631.413,N,00633.853,E,1,12,1.0,0.0,M,0.0,M,,*64
$GPGSA,A,3,01,02,03,04,05,06,07,08,09,10,11,12,1.0,1.0,1.0*30
$GPRMC,175416.206,A,4631.413,N,00633.853,E,001.9,203.3,121125,000.0,W*7E
$GPGGA,175417.206,4631.413,N,00633.852,E,1,12,1.0,0.0,M,0.0,M,,*64
$GPGSA,A,3,01,02,03,04,05,06,07,08,09,10,11,12,1.0,1.0,1.0*30
$GPRMC,175417.206,A,4631.413,N,00633.852,E,001.9,203.3,121125,000.0,W*7E
$GPGGA,175418.206,4631.412,N,00633.852,E,1,12,1.0,0.0,M,0.0,M,,*6A
$GPGSA,A,3,01,02,03,04,05,06,07,08,09,10,11,12,1.0,1.0,1.0*30
$GPRMC,175418.206,A,4631.412,N,00633.852,E,001.9,203.3,121125,000.0,W*70
$GPGGA,175419.206,4631.412,N,00633.852,E,1,12,1.0,0.0,M,0.0,M,,*6B
$GPGSA,A,3,01,02,03,04,05,06,07,08,09,10,11,12,1.0,1.0,1.0*30
$GPRMC,175419.206,A,4631.412,N,00633.852,E,001.9,203.3,121125,000.0,W*71
$GPGGA,175420.206,4631.411,N,00633.851,E,1,12,1.0,0.0,M,0.0,M,,*61
$GPGSA,A,3,01,02,03,04,05,06,07,08,09,10,11,12,1.0,1.0,1.0*30
$GPRMC,175420.206,A,4631.411,N,00633.851,E,001.9,203.3,121125,000.0,W*7B
$GPGGA,175421.206,4631.411,N,00633.851,E,1,12,1.0,0.0,M,0.0,M,,*60
$GPGSA,A,3,01,02,03,04,05,06,07,08,09,10,11,12,1.0,1.0,1.0*30
$GPRMC,175421.206,A,4631.411,N,00633.851,E,001.9,203.3,121125,000.0,W*7A
$GPGGA,175422.206,4631.410,N,00633.851,E,1,12,1.0,0.0,M,0.0,M,,*62
$GPGSA,A,3,01,02,03,04,05,06,07,08,09,10,11,12,1.0,1.0,1.0*30
$GPRMC,175422.206,A,4631.410,N,00633.851,E,001.9,203.3,121125,000.0,W*78
$GPGGA,175423.206,4631.410,N,00633.850,E,1,12,1.0,0.0,M,0.0,M,,*62
$GPGSA,A,3,01,02,03,04,05,06,07,08,09,10,11,12,1.0,1.0,1.0*30
$GPRMC,175423.206,A,4631.410,N,00633.850,E,001.9,203.3,121125,000.0,W*78
$GPGGA,175424.206,4631.409,N,00633.850,E,1,12,1.0,0.0,M,0.0,M,,*6D
$GPGSA,A,3,01,02,03,04,05,06,07,08,09,10,11,12,1.0,1.0,1.0*30
$GPRMC,175424.206,A,4631.409,N,00633.850,E,001.9,203.3,121125,000.0,W*77
$GPGGA,175425.206,4631.409,N,00633.850,E,1,12,1.0,0.0,M,0.0,M,,*6C
$GPGSA,A,3,01,02,03,04,05,06,07,08,09,10,11,12,1.0,1.0,1.0*30
$GPRMC,175425.206,A,4631.409,N,00633.850,E,001.9,203.3,121125,000.0,W*76
$GPGGA,175426.206,4631.408,N,00633.850,E,1,12,1.0,0.0,M,0.0,M,,*6E
$GPGSA,A,3,01,02,03,04,05,06,07,08,09,10,11,12,1.0,1.0,1.0*30
$GPRMC,175426.206,A,4631.408,N,00633.850,E,001.9,203.3,121125,000.0,W*74
$GPGGA,175427.206,4631.408,N,00633.849,E,1,12,1.0,0.0,M,0.0,M,,*67
$GPGSA,A,3,01,02,03,04,05,06,07,08,09,10,11,12,1.0,1.0,1.0*30
$GPRMC,175427.206,A,4631.408,N,00633.849,E,001.9,203.3,121125,000.0,W*7D
$GPGGA,175428.206,4631.407,N,00633.849,E,1,12,1.0,0.0,M,0.0,M,,*67
$GPGSA,A,3,01,02,03,04,05,06,07,08,09,10,11,12,1.0,1.0,1.0*30
$GPRMC,175428.206,A,4631.407,N,00633.849,E,001.9,203.3,121125,000.0,W*7D
$GPGGA,175429.206,4631.407,N,00633.849,E,1,12,1.0,0.0,M,0.0,M,,*66
$GPGSA,A,3,01,02,03,04,05,06,07,08,09,10,11,12,1.0,1.0,1.0*30
$GPRMC,175429.206,A,4631.407,N,00633.849,E,001.9,194.6,121125,000.0,W*74
$GPGGA,175430.206,4631.406,N,00633.848,E,1,12,1.0,0.0,M,0.0,M,,*6E
$GPGSA,A,3,01,02,03,04,05,06,07,08,09,10,11,12,1.0,1.0,1.0*30
$GPRMC,175430.206,A,4631.406,N,00633.848,E,001.9,194.6,121125,000.0,W*7C
$GPGGA,175431.206,4631.406,N,00633.848,E,1,12,1.0,0.0,M,0.0,M,,*6F
$GPGSA,A,3,01,02,03,04,05,06,07,08,09,10,11,12,1.0,1.0,1.0*30
$GPRMC,175431.206,A,4631.406,N,00633.848,E,001.9,194.6,121125,000.0,W*7D
$GPGGA,175432.206,4631.405,N,00633.848,E,1,12,1.0,0.0,M,0.0,M,,*6F
$GPGSA,A,3,01,02,03,04,05,06,07,08,09,10,11,12,1.0,1.0,1.0*30
$GPRMC,175432.206,A,4631.405,N,00633.848,E,001.9,194.6,121125,000.0,W*7D
$GPGGA,175433.206,4631.405,N,00633.848,E,1,12,1.0,0.0,M,0.0,M,,*6E
$GPGSA,A,3,01,02,03,04,05,06,07,08,09,10,11,12,1.0,1.0,1.0*30
$GPRMC,175433.206,A,4631.405,N,00633.848,E,001.9,194.6,121125,000.0,W*7C
$GPGGA,175434.206,4631.404,N,00633.848,E,1,12,1.0,0.0,M,0.0,M,,*68
$GPGSA,A,3,01,02,03,04,05,06,07,08,09,10,11,12,1.0,1.0,1.0*30
$GPRMC,175434.206,A,4631.404,N,00633.848,E,001.9,194.6,121125,000.0,W*7A
$GPGGA,175435.206,4631.404,N,00633.847,E,1,12,1.0,0.0,M,0.0,M,,*66
$GPGSA,A,3,01,02,03,04,05,06,07,08,09,10,11,12,1.0,1.0,1.0*30
$GPRMC,175435.206,A,4631.404,N,00633.847,E,001.9,194.6,121125,000.0,W*74
$GPGGA,175436.206,4631.403,N,00633.847,E,1,12,1.0,0.0,M,0.0,M,,*62
$GPGSA,A,3,01,02,03,04,05,06,07,08,09,10,11,12,1.0,1.0,1.0*30
$GPRMC,175436.206,A,4631.403,N,00633.847,E,001.9,194.6,121125,000.0,W*70
$GPGGA,175437.206,4631.403,N,00633.847,E,1,12,1.0,0.0,M,0.0,M,,*63
$GPGSA,A,3,01,02,03,04,05,06,07,08,09,10,11,12,1.0,1.0,1.0*30
$GPRMC,175437.206,A,4631.403,N,00633.847,E,001.9,194.6,121125,000.0,W*71
$GPGGA,175438.206,4631.402,N,00633.847,E,1,12,1.0,0.0,M,0.0,M,,*6D
$GPGSA,A,3,01,02,03,04,05,06,07,08,09,10,11,12,1.0,1.0,1.0*30
$GPRMC,175438.206,A,4631.402,N,00633.847,E,001.9,194.6,121125,000.0,W*7F
$GPGGA,175439.206,4631.402,N,00633.847,E,1,12,1.0,0.0,M,0.0,M,,*6C
$GPGSA,A,3,01,02,03,04,05,06,07,08,09,10,11,12,1.0,1.0,1.0*30
$GPRMC,175439.206,A,4631.402,N,00633.847,E,001.9,194.6,121125,000.0,W*7E
$GPGGA,175440.206,4631.401,N,00633.846,E,1,12,1.0,0.0,M,0.0,M,,*60
$GPGSA,A,3,01,02,03,04,05,06,07,08,09,10,11,12,1.0,1.0,1.0*30
$GPRMC,175440.206,A,4631.401,N,00633.846,E,001.9,192.6,121125,000.0,W*74
$GPGGA,175441.206,4631.401,N,00633.846,E,1,12,1.0,0.0,M,0.0,M,,*61
$GPGSA,A,3,01,02,03,04,05,06,07,08,09,10,11,12,1.0,1.0,1.0*30
$GPRMC,175441.206,A,4631.401,N,00633.846,E,001.9,192.6,121125,000.0,W*75
$GPGGA,175442.206,4631.400,N,00633.846,E,1,12,1.0,0.0,M,0.0,M,,*63
$GPGSA,A,3,01,02,03,04,05,06,07,08,09,10,11,12,1.0,1.0,1.0*30
$GPRMC,175442.206,A,4631.400,N,00633.846,E,001.9,192.6,121125,000.0,W*77
$GPGGA,175443.206,4631.400,N,00633.846,E,1,12,1.0,0.0,M,0.0,M,,*62
$GPGSA,A,3,01,02,03,04,05,06,07,08,09,10,11,12,1.0,1.0,1.0*30
$GPRMC,175443.206,A,4631.400,N,00633.846,E,001.9,192.6,121125,000.0,W*76
$GPGGA,175444.206,4631.399,N,00633.846,E,1,12,1.0,0.0,M,0.0,M,,*62
$GPGSA,A,3,01,02,03,04,05,06,07,08,09,10,11,12,1.0,1.0,1.0*30
$GPRMC,175444.206,A,4631.399,N,00633.846,E,001.9,192.6,121125,000.0,W*76
$GPGGA,175445.206,4631.399,N,00633.846,E,1,12,1.0,0.0,M,0.0,M,,*63
$GPGSA,A,3,01,02,03,04,05,06,07,08,09,10,11,12,1.0,1.0,1.0*30
$GPRMC,175445.206,A,4631.399,N,00633.846,E,001.9,192.6,121125,000.0,W*77
$GPGGA,175446.206,4631.398,N,00633.845,E,1,12,1.0,0.0,M,0.0,M,,*62
$GPGSA,A,3,01,02,03,04,05,06,07,08,09,10,11,12,1.0,1.0,1.0*30
$GPRMC,175446.206,A,4631.398,N,00633.845,E,001.9,192.6,121125,000.0,W*76
$GPGGA,175447.206,4631.398,N,00633.845,E,1,12,1.0,0.0,M,0.0,M,,*63
$GPGSA,A,3,01,02,03,04,05,06,07,08,09,10,11,12,1.0,1.0,1.0*30
$GPRMC,175447.206,A,4631.398,N,00633.845,E,001.9,192.6,121125,000.0,W*77
$GPGGA,175448.206,4631.397,N,00633.845,E,1,12,1.0,0.0,M,0.0,M,,*63
$GPGSA,A,3,01,02,03,04,05,06,07,08,09,10,11,12,1.0,1.0,1.0*30
$GPRMC,175448.206,A,4631.397,N,00633.845,E,001.9,192.6,121125,000.0,W*77
$GPGGA,175449.206,4631.397,N,00633.845,E,1,12,1.0,0.0,M,0.0,M,,*62
$GPGSA,A,3,01,02,03,04,05,06,07,08,09,10,11,12,1.0,1.0,1.0*30
$GPRMC,175449.206,A,4631.397,N,00633.845,E,001.9,192.6,121125,000.0,W*76
$GPGGA,175450.206,4631.396,N,00633.845,E,1,12,1.0,0.0,M,0.0,M,,*6B
$GPGSA,A,3,01,02,03,04,05,06,07,08,09,10,11,12,1.0,1.0,1.0*30
$GPRMC,175450.206,A,4631.396,N,00633.845,E,001.9,192.6,121125,000.0,W*7F
$GPGGA,175451.206,4631.395,N,00633.845,E,1,12,1.0,0.0,M,0.0,M,,*69
$GPGSA,A,3,01,02,03,04,05,06,07,08,09,10,11,12,1.0,1.0,1.0*30
$GPRMC,175451.206,A,4631.395,N,00633.845,E,001.9,191.0,121125,000.0,W*78
$GPGGA,175452.206,4631.395,N,00633.844,E,1,12,1.0,0.0,M,0.0,M,,*6B
$GPGSA,A,3,01,02,03,04,05,06,07,08,09,10,11,12,1.0,1.0,1.0*30
$GPRMC,175452.206,A,4631.395,N,00633.844,E,001.9,191.0,121125,000.0,W*7A
$GPGGA,175453.206,4631.394,N,00633.844,E,1,12,1.0,0.0,M,0.0,M,,*6B
$GPGSA,A,3,01,02,03,04,05,06,07,08,09,10,11,12,1.0,1.0,1.0*30
$GPRMC,175453.206,A,4631.394,N,00633.844,E,001.9,191.0,121125,000.0,W*7A
$GPGGA,175454.206,4631.394,N,00633.844,E,1,12,1.0,0.0,M,0.0,M,,*6C
$GPGSA,A,3,01,02,03,04,05,06,07,08,09,10,11,12,1.0,1.0,1.0*30
$GPRMC,175454.206,A,4631.394,N,00633.844,E,001.9,191.0,121125,000.0,W*7D
$GPGGA,175455.206,4631.393,N,00633.844,E,1,12,1.0,0.0,M,0.0,M,,*6A
$GPGSA,A,3,01,02,03,04,05,06,07,08,09,10,11,12,1.0,1.0,1.0*30
$GPRMC,175455.206,A,4631.393,N,00633.844,E,001.9,191.0,121125,000.0,W*7B
$GPGGA,175456.206,4631.393,N,00633.844,E,1,12,1.0,0.0,M,0.0,M,,*69
$GPGSA,A,3,01,02,03,04,05,06,07,08,09,10,11,12,1.0,1.0,1.0*30
$GPRMC,175456.206,A,4631.393,N,00633.844,E,001.9,191.0,121125,000.0,W*78
$GPGGA,175457.206,4631.392,N,00633.844,E,1,12,1.0,0.0,M,0.0,M,,*69
$GPGSA,A,3,01,02,03,04,05,06,07,08,09,10,11,12,1.0,1.0,1.0*30
$GPRMC,175457.206,A,4631.392,N,00633.844,E,001.9,191.0,121125,000.0,W*78
$GPGGA,175458.206,4631.392,N,00633.844,E,1,12,1.0,0.0,M,0.0,M,,*66
$GPGSA,A,3,01,02,03,04,05,06,07,08,09,10,11,12,1.0,1.0,1.0*30
$GPRMC,175458.206,A,4631.392,N,00633.844,E,001.9,191.0,121125,000.0,W*77
$GPGGA,175459.206,4631.391,N,00633.843,E,1,12,1.0,0.0,M,0.0,M,,*63
$GPGSA,A,3,01,02,03,04,05,06,07,08,09,10,11,12,1.0,1.0,1.0*30
$GPRMC,175459.206,A,4631.391,N,00633.843,E,001.9,191.0,121125,000.0,W*72
$GPGGA,175500.206,4631.391,N,00633.843,E,1,12,1.0,0.0,M,0.0,M,,*6E
$GPGSA,A,3,01,02,03,04,05,06,07,08,09,10,11,12,1.0,1.0,1.0*30
$GPRMC,175500.206,A,4631.391,N,00633.843,E,001.9,191.0,121125,000.0,W*7F
$GPGGA,175501.206,4631.390,N,00633.843,E,1,12,1.0,0.0,M,0.0,M,,*6E
$GPGSA,A,3,01,02,03,04,05,06,07,08,09,10,11,12,1.0,1.0,1.0*30
$GPRMC,175501.206,A,4631.390,N,00633.843,E,001.9,191.0,121125,000.0,W*7F
$GPGGA,175502.206,4631.390,N,00633.843,E,1,12,1.0,0.0,M,0.0,M,,*6D
$GPGSA,A,3,01,02,03,04,05,06,07,08,09,10,11,12,1.0,1.0,1.0*30
$GPRMC,175502.206,A,4631.390,N,00633.843,E,001.9,180.6,121125,000.0,W*7A
$GPGGA,175503.206,4631.389,N,00633.843,E,1,12,1.0,0.0,M,0.0,M,,*64
$GPGSA,A,3,01,02,03,04,05,06,07,08,09,10,11,12,1.0,1.0,1.0*30
$GPRMC,175503.206,A,4631.389,N,00633.843,E,001.9,180.6,121125,000.0,W*73
$GPGGA,175504.206,4631.389,N,00633.843,E,1,12,1.0,0.0,M,0.0,M,,*63
$GPGSA,A,3,01,02,03,04,05,06,07,08,09,10,11,12,1.0,1.0,1.0*30
$GPRMC,175504.206,A,4631.389,N,00633.843,E,001.9,180.6,121125,000.0,W*74
$GPGGA,175505.206,4631.388,N,00633.843,E,1,12,1.0,0.0,M,0.0,M,,*63
$GPGSA,A,3,01,02,03,04,05,06,07,08,09,10,11,12,1.0,1.0,1.0*30
$GPRMC,175505.206,A,4631.388,N,00633.843,E,001.9,180.6,121125,000.0,W*74
$GPGGA,175506.206,4631.387,N,00633.843,E,1,12,1.0,0.0,M,0.0,M,,*6F
$GPGSA,A,3,01,02,03,04,05,06,07,08,09,10,11,12,1.0,1.0,1.0*30
$GPRMC,175506.206,A,4631.387,N,00633.843,E,001.9,180.6,121125,000.0,W*78
$GPGGA,175507.206,4631.387,N,00633.843,E,1,12,1.0,0.0,M,0.0,M,,*6E
$GPGSA,A,3,01,02,03,04,05,06,07,08,09,10,11,12,1.0,1.0,1.0*30
$GPRMC,175507.206,A,4631.387,N,00633.843,E,001.9,180.6,121125,000.0,W*79
$GPGGA,175508.206,4631.386,N,00633.843,E,1,12,1.0,0.0,M,0.0,M,,*60
$GPGSA,A,3,01,02,03,04,05,06,07,08,09,10,11,12,1.0,1.0,1.0*30
$GPRMC,175508.206,A,4631.386,N,00633.843,E,001.9,180.6,121125,000.0,W*77
$GPGGA,175509.206,4631.386,N,00633.843,E,1,12,1.0,0.0,M,0.0,M,,*61
$GPGSA,A,3,01,02,03,04,05,06,07,08,09,10,11,12,1.0,1.0,1.0*30
$GPRMC,175509.206,A,4631.386,N,00633.843,E,001.9,180.6,121125,000.0,W*76
$GPGGA,175510.206,4631.385,N,00633.843,E,1,12,1.0,0.0,M,0.0,M,,*6A
$GPGSA,A,3,01,02,03,04,05,06,07,08,09,10,11,12,1.0,1.0,1.0*30
$GPRMC,175510.206,A,4631.385,N,00633.843,E,001.9,180.6,121125,000.0,W*7D
$GPGGA,175511.206,4631.385,N,00633.843,E,1,12,1.0,0.0,M,0.0,M,,*6B
$GPGSA,A,3,01,02,03,04,05,06,07,08,09,10,11,12,1.0,1.0,1.0*30
$GPRMC,175511.206,A,4631.385,N,00633.843,E,001.9,180.6,121125,000.0,W*7C
$GPGGA,175512.206,4631.384,N,00633.843,E,1,12,1.0,0.0,M,0.0,M,,*69
$GPGSA,A,3,01,02,03,04,05,06,07,08,09,10,11,12,1.0,1.0,1.0*30
$GPRMC,175512.206,A,4631.384,N,00633.843,E,001.9,180.6,121125,000.0,W*7E
$GPGGA,175513.206,4631.384,N,00633.843,E,1,12,1.0,0.0,M,0.0,M,,*68
$GPGSA,A,3,01,02,03,04,05,06,07,08,09,10,11,12,1.0,1.0,1.0*30
$GPRMC,175513.206,A,4631.384,N,00633.843,E,001.9,180.6,121125,000.0,W*7F
$GPGGA,175514.206,4631.383,N,00633.843,E,1,12,1.0,0.0,M,0.0,M,,*68
$GPGSA,A,3,01,02,03,04,05,06,07,08,09,10,11,12,1.0,1.0,1.0*30
$GPRMC,175514.206,A,4631.383,N,00633.843,E,001.9,180.6,121125,000.0,W*7F
$GPGGA,175515.206,4631.383,N,00633.843,E,1,12,1.0,0.0,M,0.0,M,,*69
$GPGSA,A,3,01,02,03,04,05,06,07,08,09,10,11,12,1.0,1.0,1.0*30
$GPRMC,175515.206,A,4631.383,N,00633.843,E,001.9,180.6,121125,000.0,W*7E
$GPGGA,175516.206,4631.382,N,00633.843,E,1,12,1.0,0.0,M,0.0,M,,*6B
$GPGSA,A,3,01,02,03,04,05,06,07,08,09,10,11,12,1.0,1.0,1.0*30
$GPRMC,175516.206,A,4631.382,N,00633.843,E,001.9,184.6,121125,000.0,W*78
$GPGGA,175517.206,4631.382,N,00633.843,E,1,12,1.0,0.0,M,0.0,M,,*6A
$GPGSA,A,3,01,02,03,04,05,06,07,08,09,10,11,12,1.0,1.0,1.0*30
$GPRMC,175517.206,A,4631.382,N,00633.843,E,001.9,184.6,121125,000.0,W*79
$GPGGA,175518.206,4631.381,N,00633.843,E,1,12,1.0,0.0,M,0.0,M,,*66
$GPGSA,A,3,01,02,03,04,05,06,07,08,09,10,11,12,1.0,1.0,1.0*30
$GPRMC,175518.206,A,4631.381,N,00633.843,E,001.9,184.6,121125,000.0,W*75
$GPGGA,175519.206,4631.380,N,00633.843,E,1,12,1.0,0.0,M,0.0,M,,*66
$GPGSA,A,3,01,02,03,04,05,06,07,08,09,10,11,12,1.0,1.0,1.0*30
$GPRMC,175519.206,A,4631.380,N,00633.843,E,001.9,184.6,121125,000.0,W*75
$GPGGA,175520.206,4631.380,N,00633.843,E,1,12,1.0,0.0,M,0.0,M,,*6C
$GPGSA,A,3,01,02,03,04,05,06,07,08,09,10,11,12,1.0,1.0,1.0*30
$GPRMC,175520.206,A,4631.380,N,00633.843,E,001.9,184.6,121125,000.0,W*7F
$GPGGA,175521.206,4631.379,N,00633.842,E,1,12,1.0,0.0,M,0.0,M,,*6A
$GPGSA,A,3,01,02,03,04,05,06,07,08,09,10,11,12,1.0,1.0,1.0*30
$GPRMC,175521.206,A,4631.379,N,00633.842,E,001.9,184.6,121125,000.0,W*79
$GPGGA,175522.206,4631.379,N,00633.842,E,1,12,1.0,0.0,M,0.0,M,,*69
$GPGSA,A,3,01,02,03,04,05,06,07,08,09,10,11,12,1.0,1.0,1.0*30
$GPRMC,175522.206,A,4631.379,N,00633.842,E,001.9,184.6,121125,000.0,W*7A
$GPGGA,175523.206,4631.378,N,00633.842,E,1,12,1.0,0.0,M,0.0,M,,*69
$GPGSA,A,3,01,02,03,04,05,06,07,08,09,10,11,12,1.0,1.0,1.0*30
$GPRMC,175523.206,A,4631.378,N,00633.842,E,001.9,184.6,121125,000.0,W*7A
$GPGGA,175524.206,4631.378,N,00633.842,E,1,12,1.0,0.0,M,0.0,M,,*6E
$GPGSA,A,3,01,02,03,04,05,06,07,08,09,10,11,12,1.0,1.0,1.0*30
$GPRMC,175524.206,A,4631.378,N,00633.842,E,001.9,184.6,121125,000.0,W*7D
$GPGGA,175525.206,4631.377,N,00633.842,E,1,12,1.0,0.0,M,0.0,M,,*60
$GPGSA,A,3,01,02,03,04,05,06,07,08,09,10,11,12,1.0,1.0,1.0*30
$GPRMC,175525.206,A,4631.377,N,00633.842,E,001.9,184.6,121125,000.0,W*73
$GPGGA,175526.206,4631.377,N,00633.842,E,1,12,1.0,0.0,M,0.0,M,,*63
$GPGSA,A,3,01,02,03,04,05,06,07,08,09,10,11,12,1.0,1.0,1.0*30
$GPRMC,175526.206,A,4631.377,N,00633.842,E,001.9,184.6,121125,000.0,W*70
$GPGGA,175527.206,4631.376,N,00633.842,E,1,12,1.0,0.0,M,0.0,M,,*63
$GPGSA,A,3,01,02,03,04,05,06,07,08,09,10,11,12,1.0,1.0,1.0*30
$GPRMC,175527.206,A,4631.376,N,00633.842,E,001.9,184.6,121125,000.0,W*70
$GPGGA,175528.206,4631.376,N,00633.842,E,1,12,1.0,0.0,M,0.0,M,,*6C
$GPGSA,A,3,01,02,03,04,05,06,07,08,09,10,11,12,1.0,1.0,1.0*30
$GPRMC,175528.206,A,4631.376,N,00633.842,E,001.9,184.6,121125,000.0,W*7F
$GPGGA,175529.206,4631.375,N,00633.842,E,1,12,1.0,0.0,M,0.0,M,,*6E
$GPGSA,A,3,01,02,03,04,05,06,07,08,09,10,11,12,1.0,1.0,1.0*30
$GPRMC,175529.206,A,4631.375,N,00633.842,E,001.9,184.6,121125,000.0,W*7D
$GPGGA,175530.206,4631.375,N,00633.842,E,1,12,1.0,0.0,M,0.0,M,,*66
$GPGSA,A,3,01,02,03,04,05,06,07,08,09,10,11,12,1.0,1.0,1.0*30
$GPRMC,175530.206,A,4631.375,N,00633.842,E,001.9,184.6,121125,000.0,W*75
$GPGGA,175531.206,4631.374,N,00633.842,E,1,12,1.0,0.0,M,0.0,M,,*66
$GPGSA,A,3,01,02,03,04,05,06,07,08,09,10,11,12,1.0,1.0,1.0*30
$GPRMC,175531.206,A,4631.374,N,00633.842,E,001.9,181.3,121125,000.0,W*75
$GPGGA,175532.206,4631.373,N,00633.842,E,1,12,1.0,0.0,M,0.0,M,,*62
$GPGSA,A,3,01,02,03,04,05,06,07,08,09,10,11,12,1.0,1.0,1.0*30
$GPRMC,175532.206,A,4631.373,N,00633.842,E,001.9,181.3,121125,000.0,W*71
$GPGGA,175533.206,4631.373,N,00633.842,E,1,12,1.0,0.0,M,0.0,M,,*63
$GPGSA,A,3,01,02,03,04,05,06,07,08,09,10,11,12,1.0,1.0,1.0*30
$GPRMC,175533.206,A,4631.373,N,00633.842,E,001.9,181.3,121125,000.0,W*70
$GPGGA,175534.206,4631.372,N,00633.842,E,1,12,1.0,0.0,M,0.0,M,,*65
$GPGSA,A,3,01,02,03,04,05,06,07,08,09,10,11,12,1.0,1.0,1.0*30
$GPRMC,175534.206,A,4631.372,N,00633.842,E,001.9,181.3,121125,000.0,W*76
$GPGGA,175535.206,4631.372,N,00633.842,E,1,12,1.0,0.0,M,0.0,M,,*64
$GPGSA,A,3,01,02,03,04,05,06,07,08,09,10,11,12,1.0,1.0,1.0*30
$GPRMC,175535.206,A,4631.372,N,00633.842,E,001.9,181.3,121125,000.0,W*77
$GPGGA,175536.206,4631.371,N,00633.842,E,1,12,1.0,0.0,M,0.0,M,,*64
$GPGSA,A,3,01,02,03,04,05,06,07,08,09,10,11,12,1.0,1.0,1.0*30
$GPRMC,175536.206,A,4631.371,N,00633.842,E,001.9,181.3,121125,000.0,W*77
$GPGGA,175537.206,4631.371,N,00633.842,E,1,12,1.0,0.0,M,0.0,M,,*65
$GPGSA,A,3,01,02,03,04,05,06,07,08,09,10,11,12,1.0,1.0,1.0*30
$GPRMC,175537.206,A,4631.371,N,00633.842,E,001.9,181.3,121125,000.0,W*76
$GPGGA,175538.206,4631.370,N,00633.842,E,1,12,1.0,0.0,M,0.0,M,,*6B
$GPGSA,A,3,01,02,03,04,05,06,07,08,09,10,11,12,1.0,1.0,1.0*30
$GPRMC,175538.206,A,4631.370,N,00633.842,E,001.9,181.3,121125,000.0,W*78
$GPGGA,175539.206,4631.370,N,00633.842,E,1,12,1.0,0.0,M,0.0,M,,*6A
$GPGSA,A,3,01,02,03,04,05,06,07,08,09,10,11,12,1.0,1.0,1.0*30
$GPRMC,175539.206,A,4631.370,N,00633.842,E,001.9,181.3,121125,000.0,W*79
$GPGGA,175540.206,4631.369,N,00633.842,E,1,12,1.0,0.0,M,0.0,M,,*6C
$GPGSA,A,3,01,02,03,04,05,06,07,08,09,10,11,12,1.0,1.0,1.0*30
$GPRMC,175540.206,A,4631.369,N,00633.842,E,001.9,181.3,121125,000.0,W*7F
$GPGGA,175541.206,4631.369,N,00633.842,E,1,12,1.0,0.0,M,0.0,M,,*6D
$GPGSA,A,3,01,02,03,04,05,06,07,08,09,10,11,12,1.0,1.0,1.0*30
$GPRMC,175541.206,A,4631.369,N,00633.842,E,001.9,181.3,121125,000.0,W*7E
$GPGGA,175542.206,4631.368,N,00633.842,E,1,12,1.0,0.0,M,0.0,M,,*6F
$GPGSA,A,3,01,02,03,04,05,06,07,08,09,10,11,12,1.0,1.0,1.0*30
$GPRMC,175542.206,A,4631.368,N,00633.842,E,001.9,181.3,121125,000.0,W*7C
$GPGGA,175543.206,4631.368,N,00633.842,E,1,12,1.0,0.0,M,0.0,M,,*6E
$GPGSA,A,3,01,02,03,04,05,06,07,08,09,10,11,12,1.0,1.0,1.0*30
$GPRMC,175543.206,A,4631.368,N,00633.842,E,001.9,181.3,121125,000.0,W*7D
$GPGGA,175544.206,4631.367,N,00633.842,E,1,12,1.0,0.0,M,0.0,M,,*66
$GPGSA,A,3,01,02,03,04,05,06,07,08,09,10,11,12,1.0,1.0,1.0*30
$GPRMC,175544.206,A,4631.367,N,00633.842,E,001.9,181.3,121125,000.0,W*75
$GPGGA,175545.206,4631.366,N,00633.842,E,1,12,1.0,0.0,M,0.0,M,,*66
$GPGSA,A,3,01,02,03,04,05,06,07,08,09,10,11,12,1.0,1.0,1.0*30
$GPRMC,175545.206,A,4631.366,N,00633.842,E,001.9,181.3,121125,000.0,W*75
$GPGGA,175546.206,4631.366,N,00633.842,E,1,12,1.0,0.0,M,0.0,M,,*65
$GPGSA,A,3,01,02,03,04,05,06,07,08,09,10,11,12,1.0,1.0,1.0*30
$GPRMC,175546.206,A,4631.366,N,00633.842,E,001.9,181.3,121125,000.0,W*76
$GPGGA,175547.206,4631.365,N,00633.842,E,1,12,1.0,0.0,M,0.0,M,,*67
$GPGSA,A,3,01,02,03,04,05,06,07,08,09,10,11,12,1.0,1.0,1.0*30
$GPRMC,175547.206,A,4631.365,N,00633.842,E,001.9,181.3,121125,000.0,W*74
$GPGGA,175548.206,4631.365,N,00633.842,E,1,12,1.0,0.0,M,0.0,M,,*68
$GPGSA,A,3,01,02,03,04,05,06,07,08,09,10,11,12,1.0,1.0,1.0*30
$GPRMC,175548.206,A,4631.365,N,00633.842,E,001.9,181.3,121125,000.0,W*7B
$GPGGA,175549.206,4631.364,N,00633.842,E,1,12,1.0,0.0,M,0.0,M,,*68
$GPGSA,A,3,01,02,03,04,05,06,07,08,09,10,11,12,1.0,1.0,1.0*30
$GPRMC,175549.206,A,4631.364,N,00633.842,E,001.9,181.3,121125,000.0,W*7B
$GPGGA,175550.206,4631.364,N,00633.842,E,1,12,1.0,0.0,M,0.0,M,,*60
$GPGSA,A,3,01,02,03,04,05,06,07,08,09,10,11,12,1.0,1.0,1.0*30
$GPRMC,175550.206,A,4631.364,N,00633.842,E,001.9,181.3,121125,000.0,W*73
$GPGGA,175551.206,4631.363,N,00633.842,E,1,12,1.0,0.0,M,0.0,M,,*66
$GPGSA,A,3,01,02,03,04,05,06,07,08,09,10,11,12,1.0,1.0,1.0*30
$GPRMC,175551.206,A,4631.363,N,00633.842,E,001.9,192.2,121125,000.0,W*76
$GPGGA,175552.206,4631.363,N,00633.841,E,1,12,1.0,0.0,M,0.0,M,,*66
$GPGSA,A,3,01,02,03,04,05,06,07,08,09,10,11,12,1.0,1.0,1.0*30
$GPRMC,175552.206,A,4631.363,N,00633.841,E,001.9,192.2,121125,000.0,W*76
$GPGGA,175553.206,4631.362,N,00633.841,E,1,12,1.0,0.0,M,0.0,M,,*66
$GPGSA,A,3,01,02,03,04,05,06,07,08,09,10,11,12,1.0,1.0,1.0*30
$GPRMC,175553.206,A,4631.362,N,00633.841,E,001.9,192.2,121125,000.0,W*76
$GPGGA,175554.206,4631.362,N,00633.841,E,1,12,1.0,0.0,M,0.0,M,,*61
$GPGSA,A,3,01,02,03,04,05,06,07,08,09,10,11,12,1.0,1.0,1.0*30
$GPRMC,175554.206,A,4631.362,N,00633.841,E,001.9,192.2,121125,000.0,W*71
$GPGGA,175555.206,4631.361,N,00633.841,E,1,12,1.0,0.0,M,0.0,M,,*63
$GPGSA,A,3,01,02,03,04,05,06,07,08,09,10,11,12,1.0,1.0,1.0*30
$GPRMC,175555.206,A,4631.361,N,00633.841,E,001.9,192.2,121125,000.0,W*73
$GPGGA,175556.206,4631.361,N,00633.841,E,1,12,1.0,0.0,M,0.0,M,,*60
$GPGSA,A,3,01,02,03,04,05,06,07,08,09,10,11,12,1.0,1.0,1.0*30
$GPRMC,175556.206,A,4631.361,N,00633.841,E,001.9,192.2,121125,000.0,W*70
$GPGGA,175557.206,4631.360,N,00633.841,E,1,12,1.0,0.0,M,0.0,M,,*60
$GPGSA,A,3,01,02,03,04,05,06,07,08,09,10,11,12,1.0,1.0,1.0*30
$GPRMC,175557.206,A,4631.360,N,00633.841,E,001.9,192.2,121125,000.0,W*70
$GPGGA,175558.206,4631.360,N,00633.840,E,1,12,1.0,0.0,M,0.0,M,,*6E
$GPGSA,A,3,01,02,03,04,05,06,07,08,09,10,11,12,1.0,1.0,1.0*30
$GPRMC,175558.206,A,4631.360,N,00633.840,E,001.9,156.5,121125,000.0,W*71
$GPGGA,175559.206,4631.359,N,00633.841,E,1,12,1.0,0.0,M,0.0,M,,*64
$GPGSA,A,3,01,02,03,04,05,06,07,08,09,10,11,12,1.0,1.0,1.0*30
$GPRMC,175559.206,A,4631.359,N,00633.841,E,001.9,156.5,121125,000.0,W*7B
$GPGGA,175600.206,4631.359,N,00633.841,E,1,12,1.0,0.0,M,0.0,M,,*6B
$GPGSA,A,3,01,02,03,04,05,06,07,08,09,10,11,12,1.0,1.0,1.0*30
$GPRMC,175600.206,A,4631.359,N,00633.841,E,001.9,061.1,121125,000.0,W*75
$GPGGA,175601.206,4631.359,N,00633.842,E,1,12,1.0,0.0,M,0.0,M,,*69
$GPGSA,A,3,01,02,03,04,05,06,07,08,09,10,11,12,1.0,1.0,1.0*30
$GPRMC,175601.206,A,4631.359,N,00633.842,E,001.9,061.1,121125,000.0,W*77
$GPGGA,175602.206,4631.359,N,00633.842,E,1,12,1.0,0.0,M,0.0,M,,*6A
$GPGSA,A,3,01,02,03,04,05,06,07,08,09,10,11,12,1.0,1.0,1.0*30
$GPRMC,175602.206,A,4631.359,N,00633.842,E,001.9,061.1,121125,000.0,W*74
$GPGGA,175603.206,4631.359,N,00633.843,E,1,12,1.0,0.0,M,0.0,M,,*6A
$GPGSA,A,3,01,02,03,04,05,06,07,08,09,10,11,12,1.0,1.0,1.0*30
$GPRMC,175603.206,A,4631.359,N,00633.843,E,001.9,061.1,121125,000.0,W*74
$GPGGA,175604.206,4631.360,N,00633.844,E,1,12,1.0,0.0,M,0.0,M,,*60
$GPGSA,A,3,01,02,03,04,05,06,07,08,09,10,11,12,1.0,1.0,1.0*30
$GPRMC,175604.206,A,4631.360,N,00633.844,E,001.9,061.1,121125,000.0,W*7E
$GPGGA,175605.206,4631.360,N,00633.844,E,1,12,1.0,0.0,M,0.0,M,,*61
$GPGSA,A,3,01,02,03,04,05,06,07,08,09,10,11,12,1.0,1.0,1.0*30
$GPRMC,175605.206,A,4631.360,N,00633.844,E,001.9,061.1,121125,000.0,W*7F
$GPGGA,175606.206,4631.360,N,00633.845,E,1,12,1.0,0.0,M,0.0,M,,*63
$GPGSA,A,3,01,02,03,04,05,06,07,08,09,10,11,12,1.0,1.0,1.0*30
$GPRMC,175606.206,A,4631.360,N,00633.845,E,001.9,134.4,121125,000.0,W*79
$GPGGA,175607.206,4631.360,N,00633.846,E,1,12,1.0,0.0,M,0.0,M,,*61
$GPGSA,A,3,01,02,03,04,05,06,07,08,09,10,11,12,1.0,1.0,1.0*30
$GPRMC,175607.206,A,4631.360,N,00633.846,E,001.9,134.4,121125,000.0,W*7B
$GPGGA,175608.206,4631.359,N,00633.846,E,1,12,1.0,0.0,M,0.0,M,,*64
$GPGSA,A,3,01,02,03,04,05,06,07,08,09,10,11,12,1.0,1.0,1.0*30
$GPRMC,175608.206,A,4631.359,N,00633.846,E,001.9,134.4,121125,000.0,W*7E
$GPGGA,175609.206,4631.359,N,00633.847,E,1,12,1.0,0.0,M,0.0,M,,*64
$GPGSA,A,3,01,02,03,04,05,06,07,08,09,10,11,12,1.0,1.0,1.0*30
$GPRMC,175609.206,A,4631.359,N,00633.847,E,001.9,134.4,121125,000.0,W*7E
$GPGGA,175610.206,4631.359,N,00633.847,E,1,12,1.0,0.0,M,0.0,M,,*6C
$GPGSA,A,3,01,02,03,04,05,06,07,08,09,10,11,12,1.0,1.0,1.0*30
$GPRMC,175610.206,A,4631.359,N,00633.847,E,001.9,134.4,121125,000.0,W*76
$GPGGA,175611.206,4631.358,N,00633.848,E,1,12,1.0,0.0,M,0.0,M,,*63
$GPGSA,A,3,01,02,03,04,05,06,07,08,09,10,11,12,1.0,1.0,1.0*30
$GPRMC,175611.206,A,4631.358,N,00633.848,E,001.9,134.4,121125,000.0,W*79
$GPGGA,175612.206,4631.358,N,00633.848,E,1,12,1.0,0.0,M,0.0,M,,*60
$GPGSA,A,3,01,02,03,04,05,06,07,08,09,10,11,12,1.0,1.0,1.0*30
$GPRMC,175612.206,A,4631.358,N,00633.848,E,001.9,134.4,121125,000.0,W*7A
$GPGGA,175613.206,4631.357,N,00633.849,E,1,12,1.0,0.0,M,0.0,M,,*6F
$GPGSA,A,3,01,02,03,04,05,06,07,08,09,10,11,12,1.0,1.0,1.0*30
$GPRMC,175613.206,A,4631.357,N,00633.849,E,001.9,134.4,121125,000.0,W*75
$GPGGA,175614.206,4631.357,N,00633.850,E,1,12,1.0,0.0,M,0.0,M,,*60
$GPGSA,A,3,01,02,03,04,05,06,07,08,09,10,11,12,1.0,1.0,1.0*30
$GPRMC,175614.206,A,4631.357,N,00633.850,E,001.9,134.4,121125,000.0,W*7A
$GPGGA,175615.206,4631.357,N,00633.850,E,1,12,1.0,0.0,M,0.0,M,,*61
$GPGSA,A,3,01,02,03,04,05,06,07,08,09,10,11,12,1.0,1.0,1.0*30
$GPRMC,175615.206,A,4631.357,N,00633.850,E,001.9,088.4,121125,000.0,W*7D
$GPGGA,175616.206,4631.357,N,00633.851,E,1,12,1.0,0.0,M,0.0,M,,*63
$GPGSA,A,3,01,02,03,04,05,06,07,08,09,10,11,12,1.0,1.0,1.0*30
$GPRMC,175616.206,A,4631.357,N,00633.851,E,001.9,088.4,121125,000.0,W*7F
$GPGGA,175617.206,4631.357,N,00633.852,E,1,12,1.0,0.0,M,0.0,M,,*61
$GPGSA,A,3,01,02,03,04,05,06,07,08,09,10,11,12,1.0,1.0,1.0*30
$GPRMC,175617.206,A,4631.357,N,00633.852,E,001.9,088.4,121125,000.0,W*7D
$GPGGA,175618.206,4631.357,N,00633.852,E,1,12,1.0,0.0,M,0.0,M,,*6E
$GPGSA,A,3,01,02,03,04,05,06,07,08,09,10,11,12,1.0,1.0,1.0*30
$GPRMC,175618.206,A,4631.357,N,00633.852,E,001.9,088.4,121125,000.0,W*72
$GPGGA,175619.206,4631.357,N,00633.853,E,1,12,1.0,0.0,M,0.0,M,,*6E
$GPGSA,A,3,01,02,03,04,05,06,07,08,09,10,11,12,1.0,1.0,1.0*30
$GPRMC,175619.206,A,4631.357,N,00633.853,E,001.9,088.4,121125,000.0,W*72
$GPGGA,175620.206,4631.357,N,00633.854,E,1,12,1.0,0.0,M,0.0,M,,*63
$GPGSA,A,3,01,02,03,04,05,06,07,08,09,10,11,12,1.0,1.0,1.0*30
$GPRMC,175620.206,A,4631.357,N,00633.854,E,001.9,088.4,121125,000.0,W*7F
$GPGGA,175621.206,4631.357,N,00633.855,E,1,12,1.0,0.0,M,0.0,M,,*63
$GPGSA,A,3,01,02,03,04,05,06,07,08,09,10,11,12,1.0,1.0,1.0*30
$GPRMC,175621.206,A,4631.357,N,00633.855,E,001.9,088.4,121125,000.0,W*7F
$GPGGA,175622.206,4631.357,N,00633.856,E,1,12,1.0,0.0,M,0.0,M,,*63
$GPGSA,A,3,01,02,03,04,05,06,07,08,09,10,11,12,1.0,1.0,1.0*30
$GPRMC,175622.206,A,4631.357,N,00633.856,E,001.9,088.4,121125,000.0,W*7F
$GPGGA,175623.206,4631.357,N,00633.856,E,1,12,1.0,0.0,M,0.0,M,,*62
$GPGSA,A,3,01,02,03,04,05,06,07,08,09,10,11,12,1.0,1.0,1.0*30
$GPRMC,175623.206,A,4631.357,N,00633.856,E,001.9,088.4,121125,000.0,W*7E
$GPGGA,175624.206,4631.357,N,00633.857,E,1,12,1.0,0.0,M,0.0,M,,*64
$GPGSA,A,3,01,02,03,04,05,06,07,08,09,10,11,12,1.0,1.0,1.0*30
$GPRMC,175624.206,A,4631.357,N,00633.857,E,001.9,088.4,121125,000.0,W*78
$GPGGA,175625.206,4631.357,N,00633.858,E,1,12,1.0,0.0,M,0.0,M,,*6A
$GPGSA,A,3,01,02,03,04,05,06,07,08,09,10,11,12,1.0,1.0,1.0*30
$GPRMC,175625.206,A,4631.357,N,00633.858,E,001.9,088.4,121125,000.0,W*76
$GPGGA,175626.206,4631.357,N,00633.859,E,1,12,1.0,0.0,M,0.0,M,,*68
$GPGSA,A,3,01,02,03,04,05,06,07,08,09,10,11,12,1.0,1.0,1.0*30
$GPRMC,175626.206,A,4631.357,N,00633.859,E,001.9,088.4,121125,000.0,W*74
$GPGGA,175627.206,4631.357,N,00633.860,E,1,12,1.0,0.0,M,0.0,M,,*63
$GPGSA,A,3,01,02,03,04,05,06,07,08,09,10,11,12,1.0,1.0,1.0*30
$GPRMC,175627.206,A,4631.357,N,00633.860,E,001.9,091.4,121125,000.0,W*77
$GPGGA,175628.206,4631.357,N,00633.860,E,1,12,1.0,0.0,M,0.0,M,,*6C
$GPGSA,A,3,01,02,03,04,05,06,07,08,09,10,11,12,1.0,1.0,1.0*30
$GPRMC,175628.206,A,4631.357,N,00633.860,E,001.9,091.4,121125,000.0,W*78
$GPGGA,175629.206,4631.357,N,00633.861,E,1,12,1.0,0.0,M,0.0,M,,*6C
$GPGSA,A,3,01,02,03,04,05,06,07,08,09,10,11,12,1.0,1.0,1.0*30
$GPRMC,175629.206,A,4631.357,N,00633.861,E,001.9,091.4,121125,000.0,W*78
$GPGGA,175630.206,4631.357,N,00633.862,E,1,12,1.0,0.0,M,0.0,M,,*67
$GPGSA,A,3,01,02,03,04,05,06,07,08,09,10,11,12,1.0,1.0,1.0*30
$GPRMC,175630.206,A,4631.357,N,00633.862,E,001.9,091.4,121125,000.0,W*73
$GPGGA,175631.206,4631.357,N,00633.863,E,1,12,1.0,0.0,M,0.0,M,,*67
$GPGSA,A,3,01,02,03,04,05,06,07,08,09,10,11,12,1.0,1.0,1.0*30
$GPRMC,175631.206,A,4631.357,N,00633.863,E,001.9,091.4,121125,000.0,W*73
$GPGGA,175632.206,4631.357,N,00633.863,E,1,12,1.0,0.0,M,0.0,M,,*64
$GPGSA,A,3,01,02,03,04,05,06,07,08,09,10,11,12,1.0,1.0,1.0*30
$GPRMC,175632.206,A,4631.357,N,00633.863,E,001.9,091.4,121125,000.0,W*70
