$GPGGA,213017.603,5205.310,N,00508.328,E,1,12,1.0,0.0,M,0.0,M,,*69
$GPGSA,A,3,01,02,03,04,05,06,07,08,09,10,11,12,1.0,1.0,1.0*30
$GPRMC,213017.603,A,5205.310,N,00508.328,E,009.7,079.2,251125,000.0,W*7F
$GPGGA,213018.603,5205.310,N,00508.332,E,1,12,1.0,0.0,M,0.0,M,,*6D
$GPGSA,A,3,01,02,03,04,05,06,07,08,09,10,11,12,1.0,1.0,1.0*30
$GPRMC,213018.603,A,5205.310,N,00508.332,E,009.7,079.2,251125,000.0,W*7B
$GPGGA,213019.603,5205.311,N,00508.336,E,1,12,1.0,0.0,M,0.0,M,,*69
$GPGSA,A,3,01,02,03,04,05,06,07,08,09,10,11,12,1.0,1.0,1.0*30
$GPRMC,213019.603,A,5205.311,N,00508.336,E,009.7,079.2,251125,000.0,W*7F
$GPGGA,213020.603,5205.311,N,00508.341,E,1,12,1.0,0.0,M,0.0,M,,*63
$GPGSA,A,3,01,02,03,04,05,06,07,08,09,10,11,12,1.0,1.0,1.0*30
$GPRMC,213020.603,A,5205.311,N,00508.341,E,009.7,079.2,251125,000.0,W*75
$GPGGA,213021.603,5205.312,N,00508.345,E,1,12,1.0,0.0,M,0.0,M,,*65
$GPGSA,A,3,01,02,03,04,05,06,07,08,09,10,11,12,1.0,1.0,1.0*30
$GPRMC,213021.603,A,5205.312,N,00508.345,E,009.7,079.2,251125,000.0,W*73
$GPGGA,213022.603,5205.312,N,00508.349,E,1,12,1.0,0.0,M,0.0,M,,*6A
$GPGSA,A,3,01,02,03,04,05,06,07,08,09,10,11,12,1.0,1.0,1.0*30
$GPRMC,213022.603,A,5205.312,N,00508.349,E,009.7,079.2,251125,000.0,W*7C
$GPGGA,213023.603,5205.313,N,00508.353,E,1,12,1.0,0.0,M,0.0,M,,*61
$GPGSA,A,3,01,02,03,04,05,06,07,08,09,10,11,12,1.0,1.0,1.0*30
$GPRMC,213023.603,A,5205.313,N,00508.353,E,009.7,048.8,251125,000.0,W*7F
$GPGGA,213024.603,5205.315,N,00508.357,E,1,12,1.0,0.0,M,0.0,M,,*64
$GPGSA,A,3,01,02,03,04,05,06,07,08,09,10,11,12,1.0,1.0,1.0*30
$GPRMC,213024.603,A,5205.315,N,00508.357,E,009.7,048.8,251125,000.0,W*7A
$GPGGA,213025.603,5205.316,N,00508.360,E,1,12,1.0,0.0,M,0.0,M,,*62
$GPGSA,A,3,01,02,03,04,05,06,07,08,09,10,11,12,1.0,1.0,1.0*30
$GPRMC,213025.603,A,5205.316,N,00508.360,E,009.7,048.8,251125,000.0,W*7C
$GPGGA,213026.603,5205.318,N,00508.363,E,1,12,1.0,0.0,M,0.0,M,,*6C
$GPGSA,A,3,01,02,03,04,05,06,07,08,09,10,11,12,1.0,1.0,1.0*30
$GPRMC,213026.603,A,5205.318,N,00508.363,E,009.7,048.8,251125,000.0,W*72
$GPGGA,213027.603,5205.320,N,00508.367,E,1,12,1.0,0.0,M,0.0,M,,*62
$GPGSA,A,3,01,02,03,04,05,06,07,08,09,10,11,12,1.0,1.0,1.0*30
$GPRMC,213027.603,A,5205.320,N,00508.367,E,009.7,048.8,251125,000.0,W*7C
$GPGGA,213028.603,5205.322,N,00508.370,E,1,12,1.0,0.0,M,0.0,M,,*69
$GPGSA,A,3,01,02,03,04,05,06,07,08,09,10,11,12,1.0,1.0,1.0*30
$GPRMC,213028.603,A,5205.322,N,00508.370,E,009.7,048.8,251125,000.0,W*77
$GPGGA,213029.603,5205.323,N,00508.373,E,1,12,1.0,0.0,M,0.0,M,,*6A
$GPGSA,A,3,01,02,03,04,05,06,07,08,09,10,11,12,1.0,1.0,1.0*30
$GPRMC,213029.603,A,5205.323,N,00508.373,E,009.7,048.8,251125,000.0,W*74
$GPGGA,213030.603,5205.325,N,00508.377,E,1,12,1.0,0.0,M,0.0,M,,*60
$GPGSA,A,3,01,02,03,04,05,06,07,08,09,10,11,12,1.0,1.0,1.0*30
$GPRMC,213030.603,A,5205.325,N,00508.377,E,009.7,048.8,251125,000.0,W*7E
$GPGGA,213031.603,5205.327,N,00508.380,E,1,12,1.0,0.0,M,0.0,M,,*6B
$GPGSA,A,3,01,02,03,04,05,06,07,08,09,10,11,12,1.0,1.0,1.0*30
$GPRMC,213031.603,A,5205.327,N,00508.380,E,009.7,023.2,251125,000.0,W*72
$GPGGA,213032.603,5205.329,N,00508.382,E,1,12,1.0,0.0,M,0.0,M,,*64
$GPGSA,A,3,01,02,03,04,05,06,07,08,09,10,11,12,1.0,1.0,1.0*30
$GPRMC,213032.603,A,5205.329,N,00508.382,E,009.7,023.2,251125,000.0,W*7D
$GPGGA,213033.603,5205.332,N,00508.383,E,1,12,1.0,0.0,M,0.0,M,,*6E
$GPGSA,A,3,01,02,03,04,05,06,07,08,09,10,11,12,1.0,1.0,1.0*30
$GPRMC,213033.603,A,5205.332,N,00508.383,E,009.7,023.2,251125,000.0,W*77
$GPGGA,213034.603,5205.334,N,00508.385,E,1,12,1.0,0.0,M,0.0,M,,*69
$GPGSA,A,3,01,02,03,04,05,06,07,08,09,10,11,12,1.0,1.0,1.0*30
$GPRMC,213034.603,A,5205.334,N,00508.385,E,009.7,023.2,251125,000.0,W*70
$GPGGA,213035.603,5205.337,N,00508.387,E,1,12,1.0,0.0,M,0.0,M,,*69
$GPGSA,A,3,01,02,03,04,05,06,07,08,09,10,11,12,1.0,1.0,1.0*30
$GPRMC,213035.603,A,5205.337,N,00508.387,E,009.7,023.2,251125,000.0,W*70
$GPGGA,213036.603,5205.339,N,00508.389,E,1,12,1.0,0.0,M,0.0,M,,*6A
$GPGSA,A,3,01,02,03,04,05,06,07,08,09,10,11,12,1.0,1.0,1.0*30
$GPRMC,213036.603,A,5205.339,N,00508.389,E,009.7,023.2,251125,000.0,W*73
$GPGGA,213037.603,5205.342,N,00508.390,E,1,12,1.0,0.0,M,0.0,M,,*6F
$GPGSA,A,3,01,02,03,04,05,06,07,08,09,10,11,12,1.0,1.0,1.0*30
$GPRMC,213037.603,A,5205.342,N,00508.390,E,009.7,023.2,251125,000.0,W*76
$GPGGA,213038.603,5205.344,N,00508.392,E,1,12,1.0,0.0,M,0.0,M,,*64
$GPGSA,A,3,01,02,03,04,05,06,07,08,09,10,11,12,1.0,1.0,1.0*30
$GPRMC,213038.603,A,5205.344,N,00508.392,E,009.7,023.2,251125,000.0,W*7D
$GPGGA,213039.603,5205.347,N,00508.394,E,1,12,1.0,0.0,M,0.0,M,,*60
$GPGSA,A,3,01,02,03,04,05,06,07,08,09,10,11,12,1.0,1.0,1.0*30
$GPRMC,213039.603,A,5205.347,N,00508.394,E,009.7,023.2,251125,000.0,W*79
$GPGGA,213040.603,5205.349,N,00508.395,E,1,12,1.0,0.0,M,0.0,M,,*61
$GPGSA,A,3,01,02,03,04,05,06,07,08,09,10,11,12,1.0,1.0,1.0*30
$GPRMC,213040.603,A,5205.349,N,00508.395,E,009.7,014.1,251125,000.0,W*7F
$GPGGA,213041.603,5205.352,N,00508.397,E,1,12,1.0,0.0,M,0.0,M,,*68
$GPGSA,A,3,01,02,03,04,05,06,07,08,09,10,11,12,1.0,1.0,1.0*30
$GPRMC,213041.603,A,5205.352,N,00508.397,E,009.7,014.1,251125,000.0,W*76
$GPGGA,213042.603,5205.355,N,00508.398,E,1,12,1.0,0.0,M,0.0,M,,*63
$GPGSA,A,3,01,02,03,04,05,06,07,08,09,10,11,12,1.0,1.0,1.0*30
$GPRMC,213042.603,A,5205.355,N,00508.398,E,009.7,014.1,251125,000.0,W*7D
$GPGGA,213043.603,5205.357,N,00508.399,E,1,12,1.0,0.0,M,0.0,M,,*61
$GPGSA,A,3,01,02,03,04,05,06,07,08,09,10,11,12,1.0,1.0,1.0*30
$GPRMC,213043.603,A,5205.357,N,00508.399,E,009.7,014.1,251125,000.0,W*7F
$GPGGA,213044.603,5205.360,N,00508.400,E,1,12,1.0,0.0,M,0.0,M,,*65
$GPGSA,A,3,01,02,03,04,05,06,07,08,09,10,11,12,1.0,1.0,1.0*30
$GPRMC,213044.603,A,5205.360,N,00508.400,E,009.7,014.1,251125,000.0,W*7B
$GPGGA,213045.603,5205.362,N,00508.401,E,1,12,1.0,0.0,M,0.0,M,,*67
$GPGSA,A,3,01,02,03,04,05,06,07,08,09,10,11,12,1.0,1.0,1.0*30
$GPRMC,213045.603,A,5205.362,N,00508.401,E,009.7,014.1,251125,000.0,W*79
$GPGGA,213046.603,5205.365,N,00508.402,E,1,12,1.0,0.0,M,0.0,M,,*60
$GPGSA,A,3,01,02,03,04,05,06,07,08,09,10,11,12,1.0,1.0,1.0*30
$GPRMC,213046.603,A,5205.365,N,00508.402,E,009.7,014.1,251125,000.0,W*7E
$GPGGA,213047.603,5205.368,N,00508.403,E,1,12,1.0,0.0,M,0.0,M,,*6D
$GPGSA,A,3,01,02,03,04,05,06,07,08,09,10,11,12,1.0,1.0,1.0*30
$GPRMC,213047.603,A,5205.368,N,00508.403,E,009.7,014.1,251125,000.0,W*73
$GPGGA,213048.603,5205.370,N,00508.404,E,1,12,1.0,0.0,M,0.0,M,,*6C
$GPGSA,A,3,01,02,03,04,05,06,07,08,09,10,11,12,1.0,1.0,1.0*30
$GPRMC,213048.603,A,5205.370,N,00508.404,E,009.7,009.0,251125,000.0,W*7F
$GPGGA,213049.603,5205.373,N,00508.405,E,1,12,1.0,0.0,M,0.0,M,,*6F
$GPGSA,A,3,01,02,03,04,05,06,07,08,09,10,11,12,1.0,1.0,1.0*30
$GPRMC,213049.603,A,5205.373,N,00508.405,E,009.7,009.0,251125,000.0,W*7C
$GPGGA,213050.603,5205.376,N,00508.405,E,1,12,1.0,0.0,M,0.0,M,,*62
$GPGSA,A,3,01,02,03,04,05,06,07,08,09,10,11,12,1.0,1.0,1.0*30
$GPRMC,213050.603,A,5205.376,N,00508.405,E,009.7,009.0,251125,000.0,W*71
$GPGGA,213051.603,5205.378,N,00508.406,E,1,12,1.0,0.0,M,0.0,M,,*6E
$GPGSA,A,3,01,02,03,04,05,06,07,08,09,10,11,12,1.0,1.0,1.0*30
$GPRMC,213051.603,A,5205.378,N,00508.406,E,009.7,009.0,251125,000.0,W*7D
$GPGGA,213052.603,5205.381,N,00508.407,E,1,12,1.0,0.0,M,0.0,M,,*6A
$GPGSA,A,3,01,02,03,04,05,06,07,08,09,10,11,12,1.0,1.0,1.0*30
$GPRMC,213052.603,A,5205.381,N,00508.407,E,009.7,009.0,251125,000.0,W*79
$GPGGA,213053.603,5205.384,N,00508.407,E,1,12,1.0,0.0,M,0.0,M,,*6E
$GPGSA,A,3,01,02,03,04,05,06,07,08,09,10,11,12,1.0,1.0,1.0*30
$GPRMC,213053.603,A,5205.384,N,00508.407,E,009.7,009.0,251125,000.0,W*7D
$GPGGA,213054.603,5205.386,N,00508.408,E,1,12,1.0,0.0,M,0.0,M,,*64
$GPGSA,A,3,01,02,03,04,05,06,07,08,09,10,11,12,1.0,1.0,1.0*30
$GPRMC,213054.603,A,5205.386,N,00508.408,E,009.7,009.0,251125,000.0,W*77
$GPGGA,213055.603,5205.389,N,00508.409,E,1,12,1.0,0.0,M,0.0,M,,*6B
$GPGSA,A,3,01,02,03,04,05,06,07,08,09,10,11,12,1.0,1.0,1.0*30
$GPRMC,213055.603,A,5205.389,N,00508.409,E,009.7,009.0,251125,000.0,W*78
$GPGGA,213056.603,5205.392,N,00508.410,E,1,12,1.0,0.0,M,0.0,M,,*6A
$GPGSA,A,3,01,02,03,04,05,06,07,08,09,10,11,12,1.0,1.0,1.0*30
$GPRMC,213056.603,A,5205.392,N,00508.410,E,009.7,009.0,251125,000.0,W*79
$GPGGA,213057.603,5205.394,N,00508.410,E,1,12,1.0,0.0,M,0.0,M,,*6D
$GPGSA,A,3,01,02,03,04,05,06,07,08,09,10,11,12,1.0,1.0,1.0*30
$GPRMC,213057.603,A,5205.394,N,00508.410,E,009.7,009.0,251125,000.0,W*7E
$GPGGA,213058.603,5205.397,N,00508.411,E,1,12,1.0,0.0,M,0.0,M,,*60
$GPGSA,A,3,01,02,03,04,05,06,07,08,09,10,11,12,1.0,1.0,1.0*30
$GPRMC,213058.603,A,5205.397,N,00508.411,E,009.7,024.2,251125,000.0,W*7E
$GPGGA,213059.603,5205.399,N,00508.413,E,1,12,1.0,0.0,M,0.0,M,,*6D
$GPGSA,A,3,01,02,03,04,05,06,07,08,09,10,11,12,1.0,1.0,1.0*30
$GPRMC,213059.603,A,5205.399,N,00508.413,E,009.7,024.2,251125,000.0,W*73
$GPGGA,213100.603,5205.402,N,00508.415,E,1,12,1.0,0.0,M,0.0,M,,*63
$GPGSA,A,3,01,02,03,04,05,06,07,08,09,10,11,12,1.0,1.0,1.0*30
$GPRMC,213100.603,A,5205.402,N,00508.415,E,009.7,024.2,251125,000.0,W*7D
$GPGGA,213101.603,5205.404,N,00508.416,E,1,12,1.0,0.0,M,0.0,M,,*67
$GPGSA,A,3,01,02,03,04,05,06,07,08,09,10,11,12,1.0,1.0,1.0*30
$GPRMC,213101.603,A,5205.404,N,00508.416,E,009.7,024.2,251125,000.0,W*79
$GPGGA,213102.603,5205.407,N,00508.418,E,1,12,1.0,0.0,M,0.0,M,,*69
$GPGSA,A,3,01,02,03,04,05,06,07,08,09,10,11,12,1.0,1.0,1.0*30
$GPRMC,213102.603,A,5205.407,N,00508.418,E,009.7,024.2,251125,000.0,W*77
$GPGGA,213103.603,5205.409,N,00508.420,E,1,12,1.0,0.0,M,0.0,M,,*6D
$GPGSA,A,3,01,02,03,04,05,06,07,08,09,10,11,12,1.0,1.0,1.0*30
$GPRMC,213103.603,A,5205.409,N,00508.420,E,009.7,024.2,251125,000.0,W*73
$GPGGA,213104.603,5205.412,N,00508.422,E,1,12,1.0,0.0,M,0.0,M,,*62
$GPGSA,A,3,01,02,03,04,05,06,07,08,09,10,11,12,1.0,1.0,1.0*30
$GPRMC,213104.603,A,5205.412,N,00508.422,E,009.7,024.2,251125,000.0,W*7C
$GPGGA,213105.603,5205.414,N,00508.423,E,1,12,1.0,0.0,M,0.0,M,,*64
$GPGSA,A,3,01,02,03,04,05,06,07,08,09,10,11,12,1.0,1.0,1.0*30
$GPRMC,213105.603,A,5205.414,N,00508.423,E,009.7,024.2,251125,000.0,W*7A
$GPGGA,213106.603,5205.417,N,00508.425,E,1,12,1.0,0.0,M,0.0,M,,*62
$GPGSA,A,3,01,02,03,04,05,06,07,08,09,10,11,12,1.0,1.0,1.0*30
$GPRMC,213106.603,A,5205.417,N,00508.425,E,009.7,024.2,251125,000.0,W*7C
$GPGGA,213107.603,5205.419,N,00508.427,E,1,12,1.0,0.0,M,0.0,M,,*6F
$GPGSA,A,3,01,02,03,04,05,06,07,08,09,10,11,12,1.0,1.0,1.0*30
$GPRMC,213107.603,A,5205.419,N,00508.427,E,009.7,024.2,251125,000.0,W*71
$GPGGA,213108.603,5205.421,N,00508.429,E,1,12,1.0,0.0,M,0.0,M,,*65
$GPGSA,A,3,01,02,03,04,05,06,07,08,09,10,11,12,1.0,1.0,1.0*30
$GPRMC,213108.603,A,5205.421,N,00508.429,E,009.7,030.5,251125,000.0,W*79
$GPGGA,213109.603,5205.424,N,00508.431,E,1,12,1.0,0.0,M,0.0,M,,*68
$GPGSA,A,3,01,02,03,04,05,06,07,08,09,10,11,12,1.0,1.0,1.0*30
$GPRMC,213109.603,A,5205.424,N,00508.431,E,009.7,030.5,251125,000.0,W*74
$GPGGA,213110.603,5205.426,N,00508.433,E,1,12,1.0,0.0,M,0.0,M,,*60
$GPGSA,A,3,01,02,03,04,05,06,07,08,09,10,11,12,1.0,1.0,1.0*30
$GPRMC,213110.603,A,5205.426,N,00508.433,E,009.7,030.5,251125,000.0,W*7C
$GPGGA,213111.603,5205.428,N,00508.436,E,1,12,1.0,0.0,M,0.0,M,,*6A
$GPGSA,A,3,01,02,03,04,05,06,07,08,09,10,11,12,1.0,1.0,1.0*30
$GPRMC,213111.603,A,5205.428,N,00508.436,E,009.7,030.5,251125,000.0,W*76
$GPGGA,213112.603,5205.431,N,00508.438,E,1,12,1.0,0.0,M,0.0,M,,*6F
$GPGSA,A,3,01,02,03,04,05,06,07,08,09,10,11,12,1.0,1.0,1.0*30
$GPRMC,213112.603,A,5205.431,N,00508.438,E,009.7,030.5,251125,000.0,W*73
$GPGGA,213113.603,5205.433,N,00508.440,E,1,12,1.0,0.0,M,0.0,M,,*63
$GPGSA,A,3,01,02,03,04,05,06,07,08,09,10,11,12,1.0,1.0,1.0*30
$GPRMC,213113.603,A,5205.433,N,00508.440,E,009.7,030.5,251125,000.0,W*7F
$GPGGA,213114.603,5205.435,N,00508.442,E,1,12,1.0,0.0,M,0.0,M,,*60
$GPGSA,A,3,01,02,03,04,05,06,07,08,09,10,11,12,1.0,1.0,1.0*30
$GPRMC,213114.603,A,5205.435,N,00508.442,E,009.7,030.5,251125,000.0,W*7C
$GPGGA,213115.603,5205.438,N,00508.444,E,1,12,1.0,0.0,M,0.0,M,,*6A
$GPGSA,A,3,01,02,03,04,05,06,07,08,09,10,11,12,1.0,1.0,1.0*30
$GPRMC,213115.603,A,5205.438,N,00508.444,E,009.7,030.5,251125,000.0,W*76
$GPGGA,213116.603,5205.440,N,00508.447,E,1,12,1.0,0.0,M,0.0,M,,*65
$GPGSA,A,3,01,02,03,04,05,06,07,08,09,10,11,12,1.0,1.0,1.0*30
$GPRMC,213116.603,A,5205.440,N,00508.447,E,009.7,030.5,251125,000.0,W*79
$GPGGA,213117.603,5205.442,N,00508.449,E,1,12,1.0,0.0,M,0.0,M,,*68
$GPGSA,A,3,01,02,03,04,05,06,07,08,09,10,11,12,1.0,1.0,1.0*30
$GPRMC,213117.603,A,5205.442,N,00508.449,E,009.7,044.1,251125,000.0,W*73
$GPGGA,213118.603,5205.444,N,00508.452,E,1,12,1.0,0.0,M,0.0,M,,*6B
$GPGSA,A,3,01,02,03,04,05,06,07,08,09,10,11,12,1.0,1.0,1.0*30
$GPRMC,213118.603,A,5205.444,N,00508.452,E,009.7,044.1,251125,000.0,W*70
$GPGGA,213119.603,5205.446,N,00508.455,E,1,12,1.0,0.0,M,0.0,M,,*6F
$GPGSA,A,3,01,02,03,04,05,06,07,08,09,10,11,12,1.0,1.0,1.0*30
$GPRMC,213119.603,A,5205.446,N,00508.455,E,009.7,044.1,251125,000.0,W*74
$GPGGA,213120.603,5205.448,N,00508.458,E,1,12,1.0,0.0,M,0.0,M,,*66
$GPGSA,A,3,01,02,03,04,05,06,07,08,09,10,11,12,1.0,1.0,1.0*30
$GPRMC,213120.603,A,5205.448,N,00508.458,E,009.7,044.1,251125,000.0,W*7D
$GPGGA,213121.603,5205.450,N,00508.461,E,1,12,1.0,0.0,M,0.0,M,,*64
$GPGSA,A,3,01,02,03,04,05,06,07,08,09,10,11,12,1.0,1.0,1.0*30
$GPRMC,213121.603,A,5205.450,N,00508.461,E,009.7,044.1,251125,000.0,W*7F
$GPGGA,213122.603,5205.452,N,00508.464,E,1,12,1.0,0.0,M,0.0,M,,*60
$GPGSA,A,3,01,02,03,04,05,06,07,08,09,10,11,12,1.0,1.0,1.0*30
$GPRMC,213122.603,A,5205.452,N,00508.464,E,009.7,044.1,251125,000.0,W*7B
$GPGGA,213123.603,5205.454,N,00508.467,E,1,12,1.0,0.0,M,0.0,M,,*64
$GPGSA,A,3,01,02,03,04,05,06,07,08,09,10,11,12,1.0,1.0,1.0*30
$GPRMC,213123.603,A,5205.454,N,00508.467,E,009.7,044.1,251125,000.0,W*7F
$GPGGA,213124.603,5205.456,N,00508.470,E,1,12,1.0,0.0,M,0.0,M,,*67
$GPGSA,A,3,01,02,03,04,05,06,07,08,09,10,11,12,1.0,1.0,1.0*30
$GPRMC,213124.603,A,5205.456,N,00508.470,E,009.7,155.1,251125,000.0,W*7D
$GPGGA,213125.603,5205.454,N,00508.472,E,1,12,1.0,0.0,M,0.0,M,,*66
$GPGSA,A,3,01,02,03,04,05,06,07,08,09,10,11,12,1.0,1.0,1.0*30
$GPRMC,213125.603,A,5205.454,N,00508.472,E,009.7,155.1,251125,000.0,W*7C
$GPGGA,213126.603,5205.451,N,00508.474,E,1,12,1.0,0.0,M,0.0,M,,*66
$GPGSA,A,3,01,02,03,04,05,06,07,08,09,10,11,12,1.0,1.0,1.0*30
$GPRMC,213126.603,A,5205.451,N,00508.474,E,009.7,155.1,251125,000.0,W*7C
$GPGGA,213127.603,5205.449,N,00508.476,E,1,12,1.0,0.0,M,0.0,M,,*6C
$GPGSA,A,3,01,02,03,04,05,06,07,08,09,10,11,12,1.0,1.0,1.0*30
$GPRMC,213127.603,A,5205.449,N,00508.476,E,009.7,155.1,251125,000.0,W*76
$GPGGA,213128.603,5205.446,N,00508.478,E,1,12,1.0,0.0,M,0.0,M,,*62
$GPGSA,A,3,01,02,03,04,05,06,07,08,09,10,11,12,1.0,1.0,1.0*30
$GPRMC,213128.603,A,5205.446,N,00508.478,E,009.7,155.1,251125,000.0,W*78
$GPGGA,213129.603,5205.444,N,00508.480,E,1,12,1.0,0.0,M,0.0,M,,*66
$GPGSA,A,3,01,02,03,04,05,06,07,08,09,10,11,12,1.0,1.0,1.0*30
$GPRMC,213129.603,A,5205.444,N,00508.480,E,009.7,155.1,251125,000.0,W*7C
$GPGGA,213130.603,5205.441,N,00508.481,E,1,12,1.0,0.0,M,0.0,M,,*6A
$GPGSA,A,3,01,02,03,04,05,06,07,08,09,10,11,12,1.0,1.0,1.0*30
$GPRMC,213130.603,A,5205.441,N,00508.481,E,009.7,155.1,251125,000.0,W*70
$GPGGA,213131.603,5205.439,N,00508.483,E,1,12,1.0,0.0,M,0.0,M,,*66
$GPGSA,A,3,01,02,03,04,05,06,07,08,09,10,11,12,1.0,1.0,1.0*30
$GPRMC,213131.603,A,5205.439,N,00508.483,E,009.7,155.1,251125,000.0,W*7C
$GPGGA,213132.603,5205.436,N,00508.485,E,1,12,1.0,0.0,M,0.0,M,,*6C
$GPGSA,A,3,01,02,03,04,05,06,07,08,09,10,11,12,1.0,1.0,1.0*30
$GPRMC,213132.603,A,5205.436,N,00508.485,E,009.7,155.1,251125,000.0,W*76
$GPGGA,213133.603,5205.434,N,00508.487,E,1,12,1.0,0.0,M,0.0,M,,*6D
$GPGSA,A,3,01,02,03,04,05,06,07,08,09,10,11,12,1.0,1.0,1.0*30
$GPRMC,213133.603,A,5205.434,N,00508.487,E,009.7,155.1,251125,000.0,W*77
$GPGGA,213134.603,5205.432,N,00508.489,E,1,12,1.0,0.0,M,0.0,M,,*62
$GPGSA,A,3,01,02,03,04,05,06,07,08,09,10,11,12,1.0,1.0,1.0*30
$GPRMC,213134.603,A,5205.432,N,00508.489,E,009.7,155.1,251125,000.0,W*78
$GPGGA,213135.603,5205.429,N,00508.491,E,1,12,1.0,0.0,M,0.0,M,,*60
$GPGSA,A,3,01,02,03,04,05,06,07,08,09,10,11,12,1.0,1.0,1.0*30
$GPRMC,213135.603,A,5205.429,N,00508.491,E,009.7,162.8,251125,000.0,W*77
$GPGGA,213136.603,5205.426,N,00508.492,E,1,12,1.0,0.0,M,0.0,M,,*6F
$GPGSA,A,3,01,02,03,04,05,06,07,08,09,10,11,12,1.0,1.0,1.0*30
$GPRMC,213136.603,A,5205.426,N,00508.492,E,009.7,162.8,251125,000.0,W*78
$GPGGA,213137.603,5205.424,N,00508.493,E,1,12,1.0,0.0,M,0.0,M,,*6D
$GPGSA,A,3,01,02,03,04,05,06,07,08,09,10,11,12,1.0,1.0,1.0*30
$GPRMC,213137.603,A,5205.424,N,00508.493,E,009.7,162.8,251125,000.0,W*7A
$GPGGA,213138.603,5205.421,N,00508.495,E,1,12,1.0,0.0,M,0.0,M,,*61
$GPGSA,A,3,01,02,03,04,05,06,07,08,09,10,11,12,1.0,1.0,1.0*30
$GPRMC,213138.603,A,5205.421,N,00508.495,E,009.7,162.8,251125,000.0,W*76
$GPGGA,213139.603,5205.419,N,00508.496,E,1,12,1.0,0.0,M,0.0,M,,*68
$GPGSA,A,3,01,02,03,04,05,06,07,08,09,10,11,12,1.0,1.0,1.0*30
$GPRMC,213139.603,A,5205.419,N,00508.496,E,009.7,162.8,251125,000.0,W*7F
$GPGGA,213140.603,5205.416,N,00508.497,E,1,12,1.0,0.0,M,0.0,M,,*68
$GPGSA,A,3,01,02,03,04,05,06,07,08,09,10,11,12,1.0,1.0,1.0*30
$GPRMC,213140.603,A,5205.416,N,00508.497,E,009.7,162.8,251125,000.0,W*7F
$GPGGA,213141.603,5205.414,N,00508.498,E,1,12,1.0,0.0,M,0.0,M,,*64
$GPGSA,A,3,01,02,03,04,05,06,07,08,09,10,11,12,1.0,1.0,1.0*30
$GPRMC,213141.603,A,5205.414,N,00508.498,E,009.7,162.8,251125,000.0,W*73
$GPGGA,213142.603,5205.411,N,00508.500,E,1,12,1.0,0.0,M,0.0,M,,*62
$GPGSA,A,3,01,02,03,04,05,06,07,08,09,10,11,12,1.0,1.0,1.0*30
$GPRMC,213142.603,A,5205.411,N,00508.500,E,009.7,162.8,251125,000.0,W*75
$GPGGA,213143.603,5205.408,N,00508.501,E,1,12,1.0,0.0,M,0.0,M,,*6A
$GPGSA,A,3,01,02,03,04,05,06,07,08,09,10,11,12,1.0,1.0,1.0*30
$GPRMC,213143.603,A,5205.408,N,00508.501,E,009.7,162.8,251125,000.0,W*7D
$GPGGA,213144.603,5205.406,N,00508.502,E,1,12,1.0,0.0,M,0.0,M,,*60
$GPGSA,A,3,01,02,03,04,05,06,07,08,09,10,11,12,1.0,1.0,1.0*30
$GPRMC,213144.603,A,5205.406,N,00508.502,E,009.7,162.8,251125,000.0,W*77
$GPGGA,213145.603,5205.403,N,00508.504,E,1,12,1.0,0.0,M,0.0,M,,*62
$GPGSA,A,3,01,02,03,04,05,06,07,08,09,10,11,12,1.0,1.0,1.0*30
$GPRMC,213145.603,A,5205.403,N,00508.504,E,009.7,162.8,251125,000.0,W*75
$GPGGA,213146.603,5205.401,N,00508.505,E,1,12,1.0,0.0,M,0.0,M,,*62
$GPGSA,A,3,01,02,03,04,05,06,07,08,09,10,11,12,1.0,1.0,1.0*30
$GPRMC,213146.603,A,5205.401,N,00508.505,E,009.7,162.8,251125,000.0,W*75
$GPGGA,213147.603,5205.398,N,00508.506,E,1,12,1.0,0.0,M,0.0,M,,*67
$GPGSA,A,3,01,02,03,04,05,06,07,08,09,10,11,12,1.0,1.0,1.0*30
$GPRMC,213147.603,A,5205.398,N,00508.506,E,009.7,162.8,251125,000.0,W*70
$GPGGA,213148.603,5205.396,N,00508.508,E,1,12,1.0,0.0,M,0.0,M,,*68
$GPGSA,A,3,01,02,03,04,05,06,07,08,09,10,11,12,1.0,1.0,1.0*30
$GPRMC,213148.603,A,5205.396,N,00508.508,E,009.7,162.8,251125,000.0,W*7F
$GPGGA,213149.603,5205.393,N,00508.509,E,1,12,1.0,0.0,M,0.0,M,,*6D
$GPGSA,A,3,01,02,03,04,05,06,07,08,09,10,11,12,1.0,1.0,1.0*30
$GPRMC,213149.603,A,5205.393,N,00508.509,E,009.7,162.8,251125,000.0,W*7A
$GPGGA,213150.603,5205.390,N,00508.510,E,1,12,1.0,0.0,M,0.0,M,,*6E
$GPGSA,A,3,01,02,03,04,05,06,07,08,09,10,11,12,1.0,1.0,1.0*30
$GPRMC,213150.603,A,5205.390,N,00508.510,E,009.7,162.8,251125,000.0,W*79
$GPGGA,213151.603,5205.388,N,00508.511,E,1,12,1.0,0.0,M,0.0,M,,*67
$GPGSA,A,3,01,02,03,04,05,06,07,08,09,10,11,12,1.0,1.0,1.0*30
$GPRMC,213151.603,A,5205.388,N,00508.511,E,009.7,162.8,251125,000.0,W*70
$GPGGA,213152.603,5205.385,N,00508.513,E,1,12,1.0,0.0,M,0.0,M,,*6B
$GPGSA,A,3,01,02,03,04,05,06,07,08,09,10,11,12,1.0,1.0,1.0*30
$GPRMC,213152.603,A,5205.385,N,00508.513,E,009.7,162.8,251125,000.0,W*7C
$GPGGA,213153.603,5205.383,N,00508.514,E,1,12,1.0,0.0,M,0.0,M,,*6B
$GPGSA,A,3,01,02,03,04,05,06,07,08,09,10,11,12,1.0,1.0,1.0*30
$GPRMC,213153.603,A,5205.383,N,00508.514,E,009.7,162.8,251125,000.0,W*7C
$GPGGA,213154.603,5205.380,N,00508.515,E,1,12,1.0,0.0,M,0.0,M,,*6E
$GPGSA,A,3,01,02,03,04,05,06,07,08,09,10,11,12,1.0,1.0,1.0*30
$GPRMC,213154.603,A,5205.380,N,00508.515,E,009.7,162.8,251125,000.0,W*79
$GPGGA,213155.603,5205.378,N,00508.517,E,1,12,1.0,0.0,M,0.0,M,,*6A
$GPGSA,A,3,01,02,03,04,05,06,07,08,09,10,11,12,1.0,1.0,1.0*30
$GPRMC,213155.603,A,5205.378,N,00508.517,E,009.7,162.8,251125,000.0,W*7D
$GPGGA,213156.603,5205.375,N,00508.518,E,1,12,1.0,0.0,M,0.0,M,,*6B
$GPGSA,A,3,01,02,03,04,05,06,07,08,09,10,11,12,1.0,1.0,1.0*30
$GPRMC,213156.603,A,5205.375,N,00508.518,E,009.7,168.6,251125,000.0,W*78
$GPGGA,213157.603,5205.372,N,00508.519,E,1,12,1.0,0.0,M,0.0,M,,*6C
$GPGSA,A,3,01,02,03,04,05,06,07,08,09,10,11,12,1.0,1.0,1.0*30
$GPRMC,213157.603,A,5205.372,N,00508.519,E,009.7,168.6,251125,000.0,W*7F
$GPGGA,213158.603,5205.370,N,00508.520,E,1,12,1.0,0.0,M,0.0,M,,*6B
$GPGSA,A,3,01,02,03,04,05,06,07,08,09,10,11,12,1.0,1.0,1.0*30
$GPRMC,213158.603,A,5205.370,N,00508.520,E,009.7,168.6,251125,000.0,W*78
$GPGGA,213159.603,5205.367,N,00508.521,E,1,12,1.0,0.0,M,0.0,M,,*6D
$GPGSA,A,3,01,02,03,04,05,06,07,08,09,10,11,12,1.0,1.0,1.0*30
$GPRMC,213159.603,A,5205.367,N,00508.521,E,009.7,168.6,251125,000.0,W*7E
$GPGGA,213200.603,5205.364,N,00508.521,E,1,12,1.0,0.0,M,0.0,M,,*61
$GPGSA,A,3,01,02,03,04,05,06,07,08,09,10,11,12,1.0,1.0,1.0*30
$GPRMC,213200.603,A,5205.364,N,00508.521,E,009.7,168.6,251125,000.0,W*72
$GPGGA,213201.603,5205.362,N,00508.522,E,1,12,1.0,0.0,M,0.0,M,,*65
$GPGSA,A,3,01,02,03,04,05,06,07,08,09,10,11,12,1.0,1.0,1.0*30
$GPRMC,213201.603,A,5205.362,N,00508.522,E,009.7,168.6,251125,000.0,W*76
$GPGGA,213202.603,5205.359,N,00508.523,E,1,12,1.0,0.0,M,0.0,M,,*6F
$GPGSA,A,3,01,02,03,04,05,06,07,08,09,10,11,12,1.0,1.0,1.0*30
$GPRMC,213202.603,A,5205.359,N,00508.523,E,009.7,168.6,251125,000.0,W*7C
$GPGGA,213203.603,5205.356,N,00508.524,E,1,12,1.0,0.0,M,0.0,M,,*66
$GPGSA,A,3,01,02,03,04,05,06,07,08,09,10,11,12,1.0,1.0,1.0*30
$GPRMC,213203.603,A,5205.356,N,00508.524,E,009.7,168.6,251125,000.0,W*75
$GPGGA,213204.603,5205.354,N,00508.525,E,1,12,1.0,0.0,M,0.0,M,,*62
$GPGSA,A,3,01,02,03,04,05,06,07,08,09,10,11,12,1.0,1.0,1.0*30
$GPRMC,213204.603,A,5205.354,N,00508.525,E,009.7,168.6,251125,000.0,W*71
$GPGGA,213205.603,5205.351,N,00508.526,E,1,12,1.0,0.0,M,0.0,M,,*65
$GPGSA,A,3,01,02,03,04,05,06,07,08,09,10,11,12,1.0,1.0,1.0*30
$GPRMC,213205.603,A,5205.351,N,00508.526,E,009.7,168.6,251125,000.0,W*76
$GPGGA,213206.603,5205.348,N,00508.527,E,1,12,1.0,0.0,M,0.0,M,,*6F
$GPGSA,A,3,01,02,03,04,05,06,07,08,09,10,11,12,1.0,1.0,1.0*30
$GPRMC,213206.603,A,5205.348,N,00508.527,E,009.7,168.6,251125,000.0,W*7C
$GPGGA,213207.603,5205.346,N,00508.527,E,1,12,1.0,0.0,M,0.0,M,,*60
$GPGSA,A,3,01,02,03,04,05,06,07,08,09,10,11,12,1.0,1.0,1.0*30
$GPRMC,213207.603,A,5205.346,N,00508.527,E,009.7,168.6,251125,000.0,W*73
$GPGGA,213208.603,5205.343,N,00508.528,E,1,12,1.0,0.0,M,0.0,M,,*65
$GPGSA,A,3,01,02,03,04,05,06,07,08,09,10,11,12,1.0,1.0,1.0*30
$GPRMC,213208.603,A,5205.343,N,00508.528,E,009.7,168.6,251125,000.0,W*76
$GPGGA,213209.603,5205.341,N,00508.529,E,1,12,1.0,0.0,M,0.0,M,,*67
$GPGSA,A,3,01,02,03,04,05,06,07,08,09,10,11,12,1.0,1.0,1.0*30
$GPRMC,213209.603,A,5205.341,N,00508.529,E,009.7,168.6,251125,000.0,W*74
$GPGGA,213210.603,5205.338,N,00508.530,E,1,12,1.0,0.0,M,0.0,M,,*69
$GPGSA,A,3,01,02,03,04,05,06,07,08,09,10,11,12,1.0,1.0,1.0*30
$GPRMC,213210.603,A,5205.338,N,00508.530,E,009.7,168.6,251125,000.0,W*7A
$GPGGA,213211.603,5205.335,N,00508.531,E,1,12,1.0,0.0,M,0.0,M,,*64
$GPGSA,A,3,01,02,03,04,05,06,07,08,09,10,11,12,1.0,1.0,1.0*30
$GPRMC,213211.603,A,5205.335,N,00508.531,E,009.7,165.3,251125,000.0,W*7F
$GPGGA,213212.603,5205.333,N,00508.532,E,1,12,1.0,0.0,M,0.0,M,,*62
$GPGSA,A,3,01,02,03,04,05,06,07,08,09,10,11,12,1.0,1.0,1.0*30
$GPRMC,213212.603,A,5205.333,N,00508.532,E,009.7,165.3,251125,000.0,W*79
$GPGGA,213213.603,5205.330,N,00508.533,E,1,12,1.0,0.0,M,0.0,M,,*61
$GPGSA,A,3,01,02,03,04,05,06,07,08,09,10,11,12,1.0,1.0,1.0*30
$GPRMC,213213.603,A,5205.330,N,00508.533,E,009.7,165.3,251125,000.0,W*7A
$GPGGA,213214.603,5205.327,N,00508.534,E,1,12,1.0,0.0,M,0.0,M,,*67
$GPGSA,A,3,01,02,03,04,05,06,07,08,09,10,11,12,1.0,1.0,1.0*30
$GPRMC,213214.603,A,5205.327,N,00508.534,E,009.7,165.3,251125,000.0,W*7C
$GPGGA,213215.603,5205.325,N,00508.535,E,1,12,1.0,0.0,M,0.0,M,,*65
$GPGSA,A,3,01,02,03,04,05,06,07,08,09,10,11,12,1.0,1.0,1.0*30
$GPRMC,213215.603,A,5205.325,N,00508.535,E,009.7,165.3,251125,000.0,W*7E
$GPGGA,213216.603,5205.322,N,00508.537,E,1,12,1.0,0.0,M,0.0,M,,*63
$GPGSA,A,3,01,02,03,04,05,06,07,08,09,10,11,12,1.0,1.0,1.0*30
$GPRMC,213216.603,A,5205.322,N,00508.537,E,009.7,165.3,251125,000.0,W*78
$GPGGA,213217.603,5205.320,N,00508.538,E,1,12,1.0,0.0,M,0.0,M,,*6F
$GPGSA,A,3,01,02,03,04,05,06,07,08,09,10,11,12,1.0,1.0,1.0*30
$GPRMC,213217.603,A,5205.320,N,00508.538,E,009.7,165.3,251125,000.0,W*74
$GPGGA,213218.603,5205.317,N,00508.539,E,1,12,1.0,0.0,M,0.0,M,,*65
$GPGSA,A,3,01,02,03,04,05,06,07,08,09,10,11,12,1.0,1.0,1.0*30
$GPRMC,213218.603,A,5205.317,N,00508.539,E,009.7,165.3,251125,000.0,W*7E
$GPGGA,213219.603,5205.314,N,00508.540,E,1,12,1.0,0.0,M,0.0,M,,*69
$GPGSA,A,3,01,02,03,04,05,06,07,08,09,10,11,12,1.0,1.0,1.0*30
$GPRMC,213219.603,A,5205.314,N,00508.540,E,009.7,165.3,251125,000.0,W*72
$GPGGA,213220.603,5205.312,N,00508.541,E,1,12,1.0,0.0,M,0.0,M,,*64
$GPGSA,A,3,01,02,03,04,05,06,07,08,09,10,11,12,1.0,1.0,1.0*30
$GPRMC,213220.603,A,5205.312,N,00508.541,E,009.7,165.3,251125,000.0,W*7F
$GPGGA,213221.603,5205.309,N,00508.542,E,1,12,1.0,0.0,M,0.0,M,,*6C
$GPGSA,A,3,01,02,03,04,05,06,07,08,09,10,11,12,1.0,1.0,1.0*30
$GPRMC,213221.603,A,5205.309,N,00508.542,E,009.7,165.3,251125,000.0,W*77
$GPGGA,213222.603,5205.307,N,00508.543,E,1,12,1.0,0.0,M,0.0,M,,*60
$GPGSA,A,3,01,02,03,04,05,06,07,08,09,10,11,12,1.0,1.0,1.0*30
$GPRMC,213222.603,A,5205.307,N,00508.543,E,009.7,165.3,251125,000.0,W*7B
$GPGGA,213223.603,5205.304,N,00508.544,E,1,12,1.0,0.0,M,0.0,M,,*65
$GPGSA,A,3,01,02,03,04,05,06,07,08,09,10,11,12,1.0,1.0,1.0*30
$GPRMC,213223.603,A,5205.304,N,00508.544,E,009.7,175.6,251125,000.0,W*7A
$GPGGA,213224.603,5205.301,N,00508.545,E,1,12,1.0,0.0,M,0.0,M,,*66
$GPGSA,A,3,01,02,03,04,05,06,07,08,09,10,11,12,1.0,1.0,1.0*30
$GPRMC,213224.603,A,5205.301,N,00508.545,E,009.7,175.6,251125,000.0,W*79
$GPGGA,213225.603,5205.299,N,00508.545,E,1,12,1.0,0.0,M,0.0,M,,*67
$GPGSA,A,3,01,02,03,04,05,06,07,08,09,10,11,12,1.0,1.0,1.0*30
$GPRMC,213225.603,A,5205.299,N,00508.545,E,009.7,175.6,251125,000.0,W*78
$GPGGA,213226.603,5205.296,N,00508.545,E,1,12,1.0,0.0,M,0.0,M,,*6B
$GPGSA,A,3,01,02,03,04,05,06,07,08,09,10,11,12,1.0,1.0,1.0*30
$GPRMC,213226.603,A,5205.296,N,00508.545,E,009.7,175.6,251125,000.0,W*74
$GPGGA,213227.603,5205.293,N,00508.546,E,1,12,1.0,0.0,M,0.0,M,,*6C
$GPGSA,A,3,01,02,03,04,05,06,07,08,09,10,11,12,1.0,1.0,1.0*30
$GPRMC,213227.603,A,5205.293,N,00508.546,E,009.7,175.6,251125,000.0,W*73
$GPGGA,213228.603,5205.290,N,00508.546,E,1,12,1.0,0.0,M,0.0,M,,*60
$GPGSA,A,3,01,02,03,04,05,06,07,08,09,10,11,12,1.0,1.0,1.0*30
$GPRMC,213228.603,A,5205.290,N,00508.546,E,009.7,175.6,251125,000.0,W*7F
$GPGGA,213229.603,5205.288,N,00508.546,E,1,12,1.0,0.0,M,0.0,M,,*68
$GPGSA,A,3,01,02,03,04,05,06,07,08,09,10,11,12,1.0,1.0,1.0*30
$GPRMC,213229.603,A,5205.288,N,00508.546,E,009.7,175.6,251125,000.0,W*77
$GPGGA,213230.603,5205.285,N,00508.547,E,1,12,1.0,0.0,M,0.0,M,,*6C
$GPGSA,A,3,01,02,03,04,05,06,07,08,09,10,11,12,1.0,1.0,1.0*30
$GPRMC,213230.603,A,5205.285,N,00508.547,E,009.7,175.6,251125,000.0,W*73
$GPGGA,213231.603,5205.282,N,00508.547,E,1,12,1.0,0.0,M,0.0,M,,*6A
$GPGSA,A,3,01,02,03,04,05,06,07,08,09,10,11,12,1.0,1.0,1.0*30
$GPRMC,213231.603,A,5205.282,N,00508.547,E,009.7,175.6,251125,000.0,W*75
$GPGGA,213232.603,5205.280,N,00508.547,E,1,12,1.0,0.0,M,0.0,M,,*6B
$GPGSA,A,3,01,02,03,04,05,06,07,08,09,10,11,12,1.0,1.0,1.0*30
$GPRMC,213232.603,A,5205.280,N,00508.547,E,009.7,175.6,251125,000.0,W*74
$GPGGA,213233.603,5205.277,N,00508.548,E,1,12,1.0,0.0,M,0.0,M,,*6D
$GPGSA,A,3,01,02,03,04,05,06,07,08,09,10,11,12,1.0,1.0,1.0*30
$GPRMC,213233.603,A,5205.277,N,00508.548,E,009.7,175.6,251125,000.0,W*72
$GPGGA,213234.603,5205.274,N,00508.548,E,1,12,1.0,0.0,M,0.0,M,,*69
$GPGSA,A,3,01,02,03,04,05,06,07,08,09,10,11,12,1.0,1.0,1.0*30
$GPRMC,213234.603,A,5205.274,N,00508.548,E,009.7,175.6,251125,000.0,W*76
$GPGGA,213235.603,5205.272,N,00508.548,E,1,12,1.0,0.0,M,0.0,M,,*6E
$GPGSA,A,3,01,02,03,04,05,06,07,08,09,10,11,12,1.0,1.0,1.0*30
$GPRMC,213235.603,A,5205.272,N,00508.548,E,009.7,175.6,251125,000.0,W*71
$GPGGA,213236.603,5205.269,N,00508.549,E,1,12,1.0,0.0,M,0.0,M,,*66
$GPGSA,A,3,01,02,03,04,05,06,07,08,09,10,11,12,1.0,1.0,1.0*30
$GPRMC,213236.603,A,5205.269,N,00508.549,E,009.7,175.6,251125,000.0,W*79
$GPGGA,213237.603,5205.266,N,00508.549,E,1,12,1.0,0.0,M,0.0,M,,*68
$GPGSA,A,3,01,02,03,04,05,06,07,08,09,10,11,12,1.0,1.0,1.0*30
$GPRMC,213237.603,A,5205.266,N,00508.549,E,009.7,181.2,251125,000.0,W*78
$GPGGA,213238.603,5205.264,N,00508.549,E,1,12,1.0,0.0,M,0.0,M,,*65
$GPGSA,A,3,01,02,03,04,05,06,07,08,09,10,11,12,1.0,1.0,1.0*30
$GPRMC,213238.603,A,5205.264,N,00508.549,E,009.7,181.2,251125,000.0,W*75
$GPGGA,213239.603,5205.261,N,00508.549,E,1,12,1.0,0.0,M,0.0,M,,*61
$GPGSA,A,3,01,02,03,04,05,06,07,08,09,10,11,12,1.0,1.0,1.0*30
$GPRMC,213239.603,A,5205.261,N,00508.549,E,009.7,181.2,251125,000.0,W*71
$GPGGA,213240.603,5205.258,N,00508.549,E,1,12,1.0,0.0,M,0.0,M,,*65
$GPGSA,A,3,01,02,03,04,05,06,07,08,09,10,11,12,1.0,1.0,1.0*30
$GPRMC,213240.603,A,5205.258,N,00508.549,E,009.7,181.2,251125,000.0,W*75
$GPGGA,213241.603,5205.255,N,00508.549,E,1,12,1.0,0.0,M,0.0,M,,*69
$GPGSA,A,3,01,02,03,04,05,06,07,08,09,10,11,12,1.0,1.0,1.0*30
$GPRMC,213241.603,A,5205.255,N,00508.549,E,009.7,181.2,251125,000.0,W*79
$GPGGA,213242.603,5205.253,N,00508.549,E,1,12,1.0,0.0,M,0.0,M,,*6C
$GPGSA,A,3,01,02,03,04,05,06,07,08,09,10,11,12,1.0,1.0,1.0*30
$GPRMC,213242.603,A,5205.253,N,00508.549,E,009.7,181.2,251125,000.0,W*7C
$GPGGA,213243.603,5205.250,N,00508.548,E,1,12,1.0,0.0,M,0.0,M,,*6F
$GPGSA,A,3,01,02,03,04,05,06,07,08,09,10,11,12,1.0,1.0,1.0*30
$GPRMC,213243.603,A,5205.250,N,00508.548,E,009.7,181.2,251125,000.0,W*7F
$GPGGA,213244.603,5205.247,N,00508.548,E,1,12,1.0,0.0,M,0.0,M,,*6E
$GPGSA,A,3,01,02,03,04,05,06,07,08,09,10,11,12,1.0,1.0,1.0*30
$GPRMC,213244.603,A,5205.247,N,00508.548,E,009.7,181.2,251125,000.0,W*7E
$GPGGA,213245.603,5205.245,N,00508.548,E,1,12,1.0,0.0,M,0.0,M,,*6D
$GPGSA,A,3,01,02,03,04,05,06,07,08,09,10,11,12,1.0,1.0,1.0*30
$GPRMC,213245.603,A,5205.245,N,00508.548,E,009.7,181.2,251125,000.0,W*7D
$GPGGA,213246.603,5205.242,N,00508.548,E,1,12,1.0,0.0,M,0.0,M,,*69
$GPGSA,A,3,01,02,03,04,05,06,07,08,09,10,11,12,1.0,1.0,1.0*30
$GPRMC,213246.603,A,5205.242,N,00508.548,E,009.7,181.2,251125,000.0,W*79
$GPGGA,213247.603,5205.239,N,00508.548,E,1,12,1.0,0.0,M,0.0,M,,*64
$GPGSA,A,3,01,02,03,04,05,06,07,08,09,10,11,12,1.0,1.0,1.0*30
$GPRMC,213247.603,A,5205.239,N,00508.548,E,009.7,181.2,251125,000.0,W*74
$GPGGA,213248.603,5205.237,N,00508.548,E,1,12,1.0,0.0,M,0.0,M,,*65
$GPGSA,A,3,01,02,03,04,05,06,07,08,09,10,11,12,1.0,1.0,1.0*30
$GPRMC,213248.603,A,5205.237,N,00508.548,E,009.7,181.2,251125,000.0,W*75
$GPGGA,213249.603,5205.234,N,00508.548,E,1,12,1.0,0.0,M,0.0,M,,*67
$GPGSA,A,3,01,02,03,04,05,06,07,08,09,10,11,12,1.0,1.0,1.0*30
$GPRMC,213249.603,A,5205.234,N,00508.548,E,009.7,181.2,251125,000.0,W*77
$GPGGA,213250.603,5205.231,N,00508.548,E,1,12,1.0,0.0,M,0.0,M,,*6A
$GPGSA,A,3,01,02,03,04,05,06,07,08,09,10,11,12,1.0,1.0,1.0*30
$GPRMC,213250.603,A,5205.231,N,00508.548,E,009.7,199.0,251125,000.0,W*71
$GPGGA,213251.603,5205.229,N,00508.546,E,1,12,1.0,0.0,M,0.0,M,,*6C
$GPGSA,A,3,01,02,03,04,05,06,07,08,09,10,11,12,1.0,1.0,1.0*30
$GPRMC,213251.603,A,5205.229,N,00508.546,E,009.7,199.0,251125,000.0,W*77
$GPGGA,213252.603,5205.226,N,00508.545,E,1,12,1.0,0.0,M,0.0,M,,*63
$GPGSA,A,3,01,02,03,04,05,06,07,08,09,10,11,12,1.0,1.0,1.0*30
$GPRMC,213252.603,A,5205.226,N,00508.545,E,009.7,199.0,251125,000.0,W*78
$GPGGA,213253.603,5205.224,N,00508.544,E,1,12,1.0,0.0,M,0.0,M,,*61
$GPGSA,A,3,01,02,03,04,05,06,07,08,09,10,11,12,1.0,1.0,1.0*30
$GPRMC,213253.603,A,5205.224,N,00508.544,E,009.7,199.0,251125,000.0,W*7A
$GPGGA,213254.603,5205.221,N,00508.542,E,1,12,1.0,0.0,M,0.0,M,,*65
$GPGSA,A,3,01,02,03,04,05,06,07,08,09,10,11,12,1.0,1.0,1.0*30
$GPRMC,213254.603,A,5205.221,N,00508.542,E,009.7,199.0,251125,000.0,W*7E
$GPGGA,213255.603,5205.218,N,00508.541,E,1,12,1.0,0.0,M,0.0,M,,*6D
$GPGSA,A,3,01,02,03,04,05,06,07,08,09,10,11,12,1.0,1.0,1.0*30
$GPRMC,213255.603,A,5205.218,N,00508.541,E,009.7,199.0,251125,000.0,W*76
$GPGGA,213256.603,5205.216,N,00508.539,E,1,12,1.0,0.0,M,0.0,M,,*6F
$GPGSA,A,3,01,02,03,04,05,06,07,08,09,10,11,12,1.0,1.0,1.0*30
$GPRMC,213256.603,A,5205.216,N,00508.539,E,009.7,199.0,251125,000.0,W*74
$GPGGA,213257.603,5205.213,N,00508.538,E,1,12,1.0,0.0,M,0.0,M,,*6A
$GPGSA,A,3,01,02,03,04,05,06,07,08,09,10,11,12,1.0,1.0,1.0*30
$GPRMC,213257.603,A,5205.213,N,00508.538,E,009.7,199.0,251125,000.0,W*71
$GPGGA,213258.603,5205.211,N,00508.536,E,1,12,1.0,0.0,M,0.0,M,,*69
$GPGSA,A,3,01,02,03,04,05,06,07,08,09,10,11,12,1.0,1.0,1.0*30
$GPRMC,213258.603,A,5205.211,N,00508.536,E,009.7,199.0,251125,000.0,W*72
$GPGGA,213259.603,5205.208,N,00508.535,E,1,12,1.0,0.0,M,0.0,M,,*63
$GPGSA,A,3,01,02,03,04,05,06,07,08,09,10,11,12,1.0,1.0,1.0*30
$GPRMC,213259.603,A,5205.208,N,00508.535,E,009.7,199.0,251125,000.0,W*78
$GPGGA,213300.603,5205.206,N,00508.534,E,1,12,1.0,0.0,M,0.0,M,,*61
$GPGSA,A,3,01,02,03,04,05,06,07,08,09,10,11,12,1.0,1.0,1.0*30
$GPRMC,213300.603,A,5205.206,N,00508.534,E,009.7,199.0,251125,000.0,W*7A
$GPGGA,213301.603,5205.203,N,00508.532,E,1,12,1.0,0.0,M,0.0,M,,*63
$GPGSA,A,3,01,02,03,04,05,06,07,08,09,10,11,12,1.0,1.0,1.0*30
$GPRMC,213301.603,A,5205.203,N,00508.532,E,009.7,199.0,251125,000.0,W*78
$GPGGA,213302.603,5205.201,N,00508.531,E,1,12,1.0,0.0,M,0.0,M,,*61
$GPGSA,A,3,01,02,03,04,05,06,07,08,09,10,11,12,1.0,1.0,1.0*30
$GPRMC,213302.603,A,5205.201,N,00508.531,E,009.7,210.0,251125,000.0,W*78
$GPGGA,213303.603,5205.198,N,00508.528,E,1,12,1.0,0.0,M,0.0,M,,*6B
$GPGSA,A,3,01,02,03,04,05,06,07,08,09,10,11,12,1.0,1.0,1.0*30
$GPRMC,213303.603,A,5205.198,N,00508.528,E,009.7,210.0,251125,000.0,W*72
$GPGGA,213304.603,5205.196,N,00508.526,E,1,12,1.0,0.0,M,0.0,M,,*6C
$GPGSA,A,3,01,02,03,04,05,06,07,08,09,10,11,12,1.0,1.0,1.0*30
$GPRMC,213304.603,A,5205.196,N,00508.526,E,009.7,210.0,251125,000.0,W*75
$GPGGA,213305.603,5205.194,N,00508.524,E,1,12,1.0,0.0,M,0.0,M,,*6D
$GPGSA,A,3,01,02,03,04,05,06,07,08,09,10,11,12,1.0,1.0,1.0*30
$GPRMC,213305.603,A,5205.194,N,00508.524,E,009.7,210.0,251125,000.0,W*74
$GPGGA,213306.603,5205.191,N,00508.522,E,1,12,1.0,0.0,M,0.0,M,,*6D
$GPGSA,A,3,01,02,03,04,05,06,07,08,09,10,11,12,1.0,1.0,1.0*30
$GPRMC,213306.603,A,5205.191,N,00508.522,E,009.7,210.0,251125,000.0,W*74
$GPGGA,213307.603,5205.189,N,00508.520,E,1,12,1.0,0.0,M,0.0,M,,*67
$GPGSA,A,3,01,02,03,04,05,06,07,08,09,10,11,12,1.0,1.0,1.0*30
$GPRMC,213307.603,A,5205.189,N,00508.520,E,009.7,210.0,251125,000.0,W*7E
$GPGGA,213308.603,5205.187,N,00508.517,E,1,12,1.0,0.0,M,0.0,M,,*62
$GPGSA,A,3,01,02,03,04,05,06,07,08,09,10,11,12,1.0,1.0,1.0*30
$GPRMC,213308.603,A,5205.187,N,00508.517,E,009.7,210.0,251125,000.0,W*7B
$GPGGA,213309.603,5205.184,N,00508.515,E,1,12,1.0,0.0,M,0.0,M,,*62
$GPGSA,A,3,01,02,03,04,05,06,07,08,09,10,11,12,1.0,1.0,1.0*30
$GPRMC,213309.603,A,5205.184,N,00508.515,E,009.7,210.0,251125,000.0,W*7B
$GPGGA,213310.603,5205.182,N,00508.513,E,1,12,1.0,0.0,M,0.0,M,,*6A
$GPGSA,A,3,01,02,03,04,05,06,07,08,09,10,11,12,1.0,1.0,1.0*30
$GPRMC,213310.603,A,5205.182,N,00508.513,E,009.7,210.0,251125,000.0,W*73
$GPGGA,213311.603,5205.180,N,00508.511,E,1,12,1.0,0.0,M,0.0,M,,*6B
$GPGSA,A,3,01,02,03,04,05,06,07,08,09,10,11,12,1.0,1.0,1.0*30
$GPRMC,213311.603,A,5205.180,N,00508.511,E,009.7,210.0,251125,000.0,W*72
$GPGGA,213312.603,5205.177,N,00508.509,E,1,12,1.0,0.0,M,0.0,M,,*69
$GPGSA,A,3,01,02,03,04,05,06,07,08,09,10,11,12,1.0,1.0,1.0*30
$GPRMC,213312.603,A,5205.177,N,00508.509,E,009.7,210.0,251125,000.0,W*70
$GPGGA,213313.603,5205.175,N,00508.506,E,1,12,1.0,0.0,M,0.0,M,,*65
$GPGSA,A,3,01,02,03,04,05,06,07,08,09,10,11,12,1.0,1.0,1.0*30
$GPRMC,213313.603,A,5205.175,N,00508.506,E,009.7,210.0,251125,000.0,W*7C
$GPGGA,213314.603,5205.173,N,00508.504,E,1,12,1.0,0.0,M,0.0,M,,*66
$GPGSA,A,3,01,02,03,04,05,06,07,08,09,10,11,12,1.0,1.0,1.0*30
$GPRMC,213314.603,A,5205.173,N,00508.504,E,009.7,210.0,251125,000.0,W*7F
$GPGGA,213315.603,5205.170,N,00508.502,E,1,12,1.0,0.0,M,0.0,M,,*62
$GPGSA,A,3,01,02,03,04,05,06,07,08,09,10,11,12,1.0,1.0,1.0*30
$GPRMC,213315.603,A,5205.170,N,00508.502,E,009.7,236.8,251125,000.0,W*77
$GPGGA,213316.603,5205.169,N,00508.498,E,1,12,1.0,0.0,M,0.0,M,,*6B
$GPGSA,A,3,01,02,03,04,05,06,07,08,09,10,11,12,1.0,1.0,1.0*30
$GPRMC,213316.603,A,5205.169,N,00508.498,E,009.7,236.8,251125,000.0,W*7E
$GPGGA,213317.603,5205.167,N,00508.495,E,1,12,1.0,0.0,M,0.0,M,,*69
$GPGSA,A,3,01,02,03,04,05,06,07,08,09,10,11,12,1.0,1.0,1.0*30
$GPRMC,213317.603,A,5205.167,N,00508.495,E,009.7,236.8,251125,000.0,W*7C
$GPGGA,213318.603,5205.166,N,00508.491,E,1,12,1.0,0.0,M,0.0,M,,*63
$GPGSA,A,3,01,02,03,04,05,06,07,08,09,10,11,12,1.0,1.0,1.0*30
$GPRMC,213318.603,A,5205.166,N,00508.491,E,009.7,236.8,251125,000.0,W*76
$GPGGA,213319.603,5205.164,N,00508.487,E,1,12,1.0,0.0,M,0.0,M,,*67
$GPGSA,A,3,01,02,03,04,05,06,07,08,09,10,11,12,1.0,1.0,1.0*30
$GPRMC,213319.603,A,5205.164,N,00508.487,E,009.7,236.8,251125,000.0,W*72
$GPGGA,213320.603,5205.163,N,00508.484,E,1,12,1.0,0.0,M,0.0,M,,*69
$GPGSA,A,3,01,02,03,04,05,06,07,08,09,10,11,12,1.0,1.0,1.0*30
$GPRMC,213320.603,A,5205.163,N,00508.484,E,009.7,236.8,251125,000.0,W*7C
$GPGGA,213321.603,5205.161,N,00508.480,E,1,12,1.0,0.0,M,0.0,M,,*6E
$GPGSA,A,3,01,02,03,04,05,06,07,08,09,10,11,12,1.0,1.0,1.0*30
$GPRMC,213321.603,A,5205.161,N,00508.480,E,009.7,236.8,251125,000.0,W*7B
$GPGGA,213322.603,5205.160,N,00508.476,E,1,12,1.0,0.0,M,0.0,M,,*65
$GPGSA,A,3,01,02,03,04,05,06,07,08,09,10,11,12,1.0,1.0,1.0*30
$GPRMC,213322.603,A,5205.160,N,00508.476,E,009.7,236.8,251125,000.0,W*70
$GPGGA,213323.603,5205.158,N,00508.473,E,1,12,1.0,0.0,M,0.0,M,,*6A
$GPGSA,A,3,01,02,03,04,05,06,07,08,09,10,11,12,1.0,1.0,1.0*30
$GPRMC,213323.603,A,5205.158,N,00508.473,E,009.7,236.8,251125,000.0,W*7F
$GPGGA,213324.603,5205.157,N,00508.469,E,1,12,1.0,0.0,M,0.0,M,,*69
$GPGSA,A,3,01,02,03,04,05,06,07,08,09,10,11,12,1.0,1.0,1.0*30
$GPRMC,213324.603,A,5205.157,N,00508.469,E,009.7,236.8,251125,000.0,W*7C
$GPGGA,213325.603,5205.155,N,00508.465,E,1,12,1.0,0.0,M,0.0,M,,*66
$GPGSA,A,3,01,02,03,04,05,06,07,08,09,10,11,12,1.0,1.0,1.0*30
$GPRMC,213325.603,A,5205.155,N,00508.465,E,009.7,236.8,251125,000.0,W*73
$GPGGA,213326.603,5205.154,N,00508.462,E,1,12,1.0,0.0,M,0.0,M,,*63
$GPGSA,A,3,01,02,03,04,05,06,07,08,09,10,11,12,1.0,1.0,1.0*30
$GPRMC,213326.603,A,5205.154,N,00508.462,E,009.7,236.8,251125,000.0,W*76
$GPGGA,213327.603,5205.153,N,00508.458,E,1,12,1.0,0.0,M,0.0,M,,*6C
$GPGSA,A,3,01,02,03,04,05,06,07,08,09,10,11,12,1.0,1.0,1.0*30
$GPRMC,213327.603,A,5205.153,N,00508.458,E,009.7,236.8,251125,000.0,W*79
$GPGGA,213328.603,5205.151,N,00508.454,E,1,12,1.0,0.0,M,0.0,M,,*6D
$GPGSA,A,3,01,02,03,04,05,06,07,08,09,10,11,12,1.0,1.0,1.0*30
$GPRMC,213328.603,A,5205.151,N,00508.454,E,009.7,236.8,251125,000.0,W*78
$GPGGA,213329.603,5205.150,N,00508.451,E,1,12,1.0,0.0,M,0.0,M,,*68
$GPGSA,A,3,01,02,03,04,05,06,07,08,09,10,11,12,1.0,1.0,1.0*30
$GPRMC,213329.603,A,5205.150,N,00508.451,E,009.7,236.8,251125,000.0,W*7D
$GPGGA,213330.603,5205.148,N,00508.447,E,1,12,1.0,0.0,M,0.0,M,,*6E
$GPGSA,A,3,01,02,03,04,05,06,07,08,09,10,11,12,1.0,1.0,1.0*30
$GPRMC,213330.603,A,5205.148,N,00508.447,E,009.7,236.8,251125,000.0,W*7B
$GPGGA,213331.603,5205.147,N,00508.443,E,1,12,1.0,0.0,M,0.0,M,,*64
$GPGSA,A,3,01,02,03,04,05,06,07,08,09,10,11,12,1.0,1.0,1.0*30
$GPRMC,213331.603,A,5205.147,N,00508.443,E,009.7,236.8,251125,000.0,W*71
$GPGGA,213332.603,5205.145,N,00508.440,E,1,12,1.0,0.0,M,0.0,M,,*66
$GPGSA,A,3,01,02,03,04,05,06,07,08,09,10,11,12,1.0,1.0,1.0*30
$GPRMC,213332.603,A,5205.145,N,00508.440,E,009.7,236.8,251125,000.0,W*73
$GPGGA,213333.603,5205.144,N,00508.436,E,1,12,1.0,0.0,M,0.0,M,,*67
$GPGSA,A,3,01,02,03,04,05,06,07,08,09,10,11,12,1.0,1.0,1.0*30
$GPRMC,213333.603,A,5205.144,N,00508.436,E,009.7,236.8,251125,000.0,W*72
$GPGGA,213334.603,5205.142,N,00508.432,E,1,12,1.0,0.0,M,0.0,M,,*62
$GPGSA,A,3,01,02,03,04,05,06,07,08,09,10,11,12,1.0,1.0,1.0*30
$GPRMC,213334.603,A,5205.142,N,00508.432,E,009.7,236.8,251125,000.0,W*77
$GPGGA,213335.603,5205.141,N,00508.429,E,1,12,1.0,0.0,M,0.0,M,,*6A
$GPGSA,A,3,01,02,03,04,05,06,07,08,09,10,11,12,1.0,1.0,1.0*30
$GPRMC,213335.603,A,5205.141,N,00508.429,E,009.7,280.4,251125,000.0,W*7E
$GPGGA,213336.603,5205.141,N,00508.424,E,1,12,1.0,0.0,M,0.0,M,,*64
$GPGSA,A,3,01,02,03,04,05,06,07,08,09,10,11,12,1.0,1.0,1.0*30
$GPRMC,213336.603,A,5205.141,N,00508.424,E,009.7,280.4,251125,000.0,W*70
$GPGGA,213337.603,5205.142,N,00508.420,E,1,12,1.0,0.0,M,0.0,M,,*62
$GPGSA,A,3,01,02,03,04,05,06,07,08,09,10,11,12,1.0,1.0,1.0*30
$GPRMC,213337.603,A,5205.142,N,00508.420,E,009.7,280.4,251125,000.0,W*76
$GPGGA,213338.603,5205.142,N,00508.416,E,1,12,1.0,0.0,M,0.0,M,,*68
$GPGSA,A,3,01,02,03,04,05,06,07,08,09,10,11,12,1.0,1.0,1.0*30
$GPRMC,213338.603,A,5205.142,N,00508.416,E,009.7,280.4,251125,000.0,W*7C
$GPGGA,213339.603,5205.143,N,00508.411,E,1,12,1.0,0.0,M,0.0,M,,*6F
$GPGSA,A,3,01,02,03,04,05,06,07,08,09,10,11,12,1.0,1.0,1.0*30
$GPRMC,213339.603,A,5205.143,N,00508.411,E,009.7,280.4,251125,000.0,W*7B
$GPGGA,213340.603,5205.143,N,00508.407,E,1,12,1.0,0.0,M,0.0,M,,*66
$GPGSA,A,3,01,02,03,04,05,06,07,08,09,10,11,12,1.0,1.0,1.0*30
$GPRMC,213340.603,A,5205.143,N,00508.407,E,009.7,280.4,251125,000.0,W*72
$GPGGA,213341.603,5205.144,N,00508.403,E,1,12,1.0,0.0,M,0.0,M,,*64
$GPGSA,A,3,01,02,03,04,05,06,07,08,09,10,11,12,1.0,1.0,1.0*30
$GPRMC,213341.603,A,5205.144,N,00508.403,E,009.7,280.4,251125,000.0,W*70
$GPGGA,213342.603,5205.144,N,00508.398,E,1,12,1.0,0.0,M,0.0,M,,*62
$GPGSA,A,3,01,02,03,04,05,06,07,08,09,10,11,12,1.0,1.0,1.0*30
$GPRMC,213342.603,A,5205.144,N,00508.398,E,009.7,280.4,251125,000.0,W*76
$GPGGA,213343.603,5205.145,N,00508.394,E,1,12,1.0,0.0,M,0.0,M,,*6E
$GPGSA,A,3,01,02,03,04,05,06,07,08,09,10,11,12,1.0,1.0,1.0*30
$GPRMC,213343.603,A,5205.145,N,00508.394,E,009.7,280.4,251125,000.0,W*7A
$GPGGA,213344.603,5205.145,N,00508.390,E,1,12,1.0,0.0,M,0.0,M,,*6D
$GPGSA,A,3,01,02,03,04,05,06,07,08,09,10,11,12,1.0,1.0,1.0*30
$GPRMC,213344.603,A,5205.145,N,00508.390,E,009.7,280.4,251125,000.0,W*79
$GPGGA,213345.603,5205.146,N,00508.385,E,1,12,1.0,0.0,M,0.0,M,,*6B
$GPGSA,A,3,01,02,03,04,05,06,07,08,09,10,11,12,1.0,1.0,1.0*30
$GPRMC,213345.603,A,5205.146,N,00508.385,E,009.7,299.1,251125,000.0,W*72
$GPGGA,213346.603,5205.147,N,00508.382,E,1,12,1.0,0.0,M,0.0,M,,*6E
$GPGSA,A,3,01,02,03,04,05,06,07,08,09,10,11,12,1.0,1.0,1.0*30
$GPRMC,213346.603,A,5205.147,N,00508.382,E,009.7,299.1,251125,000.0,W*77
$GPGGA,213347.603,5205.148,N,00508.378,E,1,12,1.0,0.0,M,0.0,M,,*65
$GPGSA,A,3,01,02,03,04,05,06,07,08,09,10,11,12,1.0,1.0,1.0*30
$GPRMC,213347.603,A,5205.148,N,00508.378,E,009.7,299.1,251125,000.0,W*7C
$GPGGA,213348.603,5205.149,N,00508.374,E,1,12,1.0,0.0,M,0.0,M,,*67
$GPGSA,A,3,01,02,03,04,05,06,07,08,09,10,11,12,1.0,1.0,1.0*30
$GPRMC,213348.603,A,5205.149,N,00508.374,E,009.7,299.1,251125,000.0,W*7E
$GPGGA,213349.603,5205.151,N,00508.370,E,1,12,1.0,0.0,M,0.0,M,,*6B
$GPGSA,A,3,01,02,03,04,05,06,07,08,09,10,11,12,1.0,1.0,1.0*30
$GPRMC,213349.603,A,5205.151,N,00508.370,E,009.7,299.1,251125,000.0,W*72
$GPGGA,213350.603,5205.152,N,00508.366,E,1,12,1.0,0.0,M,0.0,M,,*67
$GPGSA,A,3,01,02,03,04,05,06,07,08,09,10,11,12,1.0,1.0,1.0*30
$GPRMC,213350.603,A,5205.152,N,00508.366,E,009.7,299.1,251125,000.0,W*7E
$GPGGA,213351.603,5205.153,N,00508.362,E,1,12,1.0,0.0,M,0.0,M,,*63
$GPGSA,A,3,01,02,03,04,05,06,07,08,09,10,11,12,1.0,1.0,1.0*30
$GPRMC,213351.603,A,5205.153,N,00508.362,E,009.7,299.1,251125,000.0,W*7A
$GPGGA,213352.603,5205.155,N,00508.359,E,1,12,1.0,0.0,M,0.0,M,,*6E
$GPGSA,A,3,01,02,03,04,05,06,07,08,09,10,11,12,1.0,1.0,1.0*30
$GPRMC,213352.603,A,5205.155,N,00508.359,E,009.7,299.1,251125,000.0,W*77
$GPGGA,213353.603,5205.156,N,00508.355,E,1,12,1.0,0.0,M,0.0,M,,*60
$GPGSA,A,3,01,02,03,04,05,06,07,08,09,10,11,12,1.0,1.0,1.0*30
$GPRMC,213353.603,A,5205.156,N,00508.355,E,009.7,299.1,251125,000.0,W*79
$GPGGA,213354.603,5205.157,N,00508.351,E,1,12,1.0,0.0,M,0.0,M,,*62
$GPGSA,A,3,01,02,03,04,05,06,07,08,09,10,11,12,1.0,1.0,1.0*30
$GPRMC,213354.603,A,5205.157,N,00508.351,E,009.7,336.1,251125,000.0,W*7F
$GPGGA,213355.603,5205.160,N,00508.349,E,1,12,1.0,0.0,M,0.0,M,,*6E
$GPGSA,A,3,01,02,03,04,05,06,07,08,09,10,11,12,1.0,1.0,1.0*30
$GPRMC,213355.603,A,5205.160,N,00508.349,E,009.7,336.1,251125,000.0,W*73
$GPGGA,213356.603,5205.162,N,00508.347,E,1,12,1.0,0.0,M,0.0,M,,*61
$GPGSA,A,3,01,02,03,04,05,06,07,08,09,10,11,12,1.0,1.0,1.0*30
$GPRMC,213356.603,A,5205.162,N,00508.347,E,009.7,336.1,251125,000.0,W*7C
$GPGGA,213357.603,5205.165,N,00508.346,E,1,12,1.0,0.0,M,0.0,M,,*66
$GPGSA,A,3,01,02,03,04,05,06,07,08,09,10,11,12,1.0,1.0,1.0*30
$GPRMC,213357.603,A,5205.165,N,00508.346,E,009.7,336.1,251125,000.0,W*7B
$GPGGA,213358.603,5205.167,N,00508.344,E,1,12,1.0,0.0,M,0.0,M,,*69
$GPGSA,A,3,01,02,03,04,05,06,07,08,09,10,11,12,1.0,1.0,1.0*30
$GPRMC,213358.603,A,5205.167,N,00508.344,E,009.7,336.1,251125,000.0,W*74
$GPGGA,213359.603,5205.170,N,00508.342,E,1,12,1.0,0.0,M,0.0,M,,*68
$GPGSA,A,3,01,02,03,04,05,06,07,08,09,10,11,12,1.0,1.0,1.0*30
$GPRMC,213359.603,A,5205.170,N,00508.342,E,009.7,336.1,251125,000.0,W*75
$GPGGA,213400.603,5205.172,N,00508.340,E,1,12,1.0,0.0,M,0.0,M,,*63
$GPGSA,A,3,01,02,03,04,05,06,07,08,09,10,11,12,1.0,1.0,1.0*30
$GPRMC,213400.603,A,5205.172,N,00508.340,E,009.7,336.1,251125,000.0,W*7E
$GPGGA,213401.603,5205.175,N,00508.338,E,1,12,1.0,0.0,M,0.0,M,,*6A
$GPGSA,A,3,01,02,03,04,05,06,07,08,09,10,11,12,1.0,1.0,1.0*30
$GPRMC,213401.603,A,5205.175,N,00508.338,E,009.7,336.1,251125,000.0,W*77
$GPGGA,213402.603,5205.177,N,00508.337,E,1,12,1.0,0.0,M,0.0,M,,*64
$GPGSA,A,3,01,02,03,04,05,06,07,08,09,10,11,12,1.0,1.0,1.0*30
$GPRMC,213402.603,A,5205.177,N,00508.337,E,009.7,336.1,251125,000.0,W*79
$GPGGA,213403.603,5205.180,N,00508.335,E,1,12,1.0,0.0,M,0.0,M,,*6F
$GPGSA,A,3,01,02,03,04,05,06,07,08,09,10,11,12,1.0,1.0,1.0*30
$GPRMC,213403.603,A,5205.180,N,00508.335,E,009.7,020.0,251125,000.0,W*77
$GPGGA,213404.603,5205.182,N,00508.336,E,1,12,1.0,0.0,M,0.0,M,,*69
$GPGSA,A,3,01,02,03,04,05,06,07,08,09,10,11,12,1.0,1.0,1.0*30
$GPRMC,213404.603,A,5205.182,N,00508.336,E,009.7,020.0,251125,000.0,W*71
$GPGGA,213405.603,5205.185,N,00508.338,E,1,12,1.0,0.0,M,0.0,M,,*61
$GPGSA,A,3,01,02,03,04,05,06,07,08,09,10,11,12,1.0,1.0,1.0*30
$GPRMC,213405.603,A,5205.185,N,00508.338,E,009.7,020.0,251125,000.0,W*79
$GPGGA,213406.603,5205.187,N,00508.339,E,1,12,1.0,0.0,M,0.0,M,,*61
$GPGSA,A,3,01,02,03,04,05,06,07,08,09,10,11,12,1.0,1.0,1.0*30
$GPRMC,213406.603,A,5205.187,N,00508.339,E,009.7,020.0,251125,000.0,W*79
$GPGGA,213407.603,5205.190,N,00508.341,E,1,12,1.0,0.0,M,0.0,M,,*69
$GPGSA,A,3,01,02,03,04,05,06,07,08,09,10,11,12,1.0,1.0,1.0*30
$GPRMC,213407.603,A,5205.190,N,00508.341,E,009.7,020.0,251125,000.0,W*71
$GPGGA,213408.603,5205.192,N,00508.342,E,1,12,1.0,0.0,M,0.0,M,,*67
$GPGSA,A,3,01,02,03,04,05,06,07,08,09,10,11,12,1.0,1.0,1.0*30
$GPRMC,213408.603,A,5205.192,N,00508.342,E,009.7,020.0,251125,000.0,W*7F
$GPGGA,213409.603,5205.195,N,00508.344,E,1,12,1.0,0.0,M,0.0,M,,*67
$GPGSA,A,3,01,02,03,04,05,06,07,08,09,10,11,12,1.0,1.0,1.0*30
$GPRMC,213409.603,A,5205.195,N,00508.344,E,009.7,020.0,251125,000.0,W*7F
$GPGGA,213410.603,5205.197,N,00508.345,E,1,12,1.0,0.0,M,0.0,M,,*6C
$GPGSA,A,3,01,02,03,04,05,06,07,08,09,10,11,12,1.0,1.0,1.0*30
$GPRMC,213410.603,A,5205.197,N,00508.345,E,009.7,020.0,251125,000.0,W*74
$GPGGA,213411.603,5205.200,N,00508.347,E,1,12,1.0,0.0,M,0.0,M,,*62
$GPGSA,A,3,01,02,03,04,05,06,07,08,09,10,11,12,1.0,1.0,1.0*30
$GPRMC,213411.603,A,5205.200,N,00508.347,E,009.7,020.0,251125,000.0,W*7A
$GPGGA,213412.603,5205.202,N,00508.348,E,1,12,1.0,0.0,M,0.0,M,,*6C
$GPGSA,A,3,01,02,03,04,05,06,07,08,09,10,11,12,1.0,1.0,1.0*30
$GPRMC,213412.603,A,5205.202,N,00508.348,E,009.7,020.0,251125,000.0,W*74
$GPGGA,213413.603,5205.205,N,00508.350,E,1,12,1.0,0.0,M,0.0,M,,*63
$GPGSA,A,3,01,02,03,04,05,06,07,08,09,10,11,12,1.0,1.0,1.0*30
$GPRMC,213413.603,A,5205.205,N,00508.350,E,009.7,020.0,251125,000.0,W*7B
$GPGGA,213414.603,5205.207,N,00508.351,E,1,12,1.0,0.0,M,0.0,M,,*67
$GPGSA,A,3,01,02,03,04,05,06,07,08,09,10,11,12,1.0,1.0,1.0*30
$GPRMC,213414.603,A,5205.207,N,00508.351,E,009.7,047.7,251125,000.0,W*79
$GPGGA,213415.603,5205.209,N,00508.355,E,1,12,1.0,0.0,M,0.0,M,,*6C
$GPGSA,A,3,01,02,03,04,05,06,07,08,09,10,11,12,1.0,1.0,1.0*30
$GPRMC,213415.603,A,5205.209,N,00508.355,E,009.7,047.7,251125,000.0,W*72
$GPGGA,213416.603,5205.211,N,00508.358,E,1,12,1.0,0.0,M,0.0,M,,*6B
$GPGSA,A,3,01,02,03,04,05,06,07,08,09,10,11,12,1.0,1.0,1.0*30
$GPRMC,213416.603,A,5205.211,N,00508.358,E,009.7,047.7,251125,000.0,W*75
$GPGGA,213417.603,5205.213,N,00508.361,E,1,12,1.0,0.0,M,0.0,M,,*62
$GPGSA,A,3,01,02,03,04,05,06,07,08,09,10,11,12,1.0,1.0,1.0*30
$GPRMC,213417.603,A,5205.213,N,00508.361,E,009.7,047.7,251125,000.0,W*7C
$GPGGA,213418.603,5205.215,N,00508.364,E,1,12,1.0,0.0,M,0.0,M,,*6E
$GPGSA,A,3,01,02,03,04,05,06,07,08,09,10,11,12,1.0,1.0,1.0*30
$GPRMC,213418.603,A,5205.215,N,00508.364,E,009.7,047.7,251125,000.0,W*70
$GPGGA,213419.603,5205.217,N,00508.368,E,1,12,1.0,0.0,M,0.0,M,,*61
$GPGSA,A,3,01,02,03,04,05,06,07,08,09,10,11,12,1.0,1.0,1.0*30
$GPRMC,213419.603,A,5205.217,N,00508.368,E,009.7,047.7,251125,000.0,W*7F
$GPGGA,213420.603,5205.218,N,00508.371,E,1,12,1.0,0.0,M,0.0,M,,*6C
$GPGSA,A,3,01,02,03,04,05,06,07,08,09,10,11,12,1.0,1.0,1.0*30
$GPRMC,213420.603,A,5205.218,N,00508.371,E,009.7,047.7,251125,000.0,W*72
$GPGGA,213421.603,5205.220,N,00508.374,E,1,12,1.0,0.0,M,0.0,M,,*63
$GPGSA,A,3,01,02,03,04,05,06,07,08,09,10,11,12,1.0,1.0,1.0*30
$GPRMC,213421.603,A,5205.220,N,00508.374,E,009.7,047.7,251125,000.0,W*7D
$GPGGA,213422.603,5205.222,N,00508.377,E,1,12,1.0,0.0,M,0.0,M,,*61
$GPGSA,A,3,01,02,03,04,05,06,07,08,09,10,11,12,1.0,1.0,1.0*30
$GPRMC,213422.603,A,5205.222,N,00508.377,E,009.7,047.7,251125,000.0,W*7F
$GPGGA,213423.603,5205.224,N,00508.381,E,1,12,1.0,0.0,M,0.0,M,,*6F
$GPGSA,A,3,01,02,03,04,05,06,07,08,09,10,11,12,1.0,1.0,1.0*30
$GPRMC,213423.603,A,5205.224,N,00508.381,E,009.7,086.5,251125,000.0,W*7E
$GPGGA,213424.603,5205.224,N,00508.385,E,1,12,1.0,0.0,M,0.0,M,,*6C
$GPGSA,A,3,01,02,03,04,05,06,07,08,09,10,11,12,1.0,1.0,1.0*30
$GPRMC,213424.603,A,5205.224,N,00508.385,E,009.7,086.5,251125,000.0,W*7D
$GPGGA,213425.603,5205.224,N,00508.389,E,1,12,1.0,0.0,M,0.0,M,,*61
$GPGSA,A,3,01,02,03,04,05,06,07,08,09,10,11,12,1.0,1.0,1.0*30
$GPRMC,213425.603,A,5205.224,N,00508.389,E,009.7,086.5,251125,000.0,W*70
$GPGGA,213426.603,5205.224,N,00508.394,E,1,12,1.0,0.0,M,0.0,M,,*6E
$GPGSA,A,3,01,02,03,04,05,06,07,08,09,10,11,12,1.0,1.0,1.0*30
$GPRMC,213426.603,A,5205.224,N,00508.394,E,009.7,086.5,251125,000.0,W*7F
$GPGGA,213427.603,5205.224,N,00508.398,E,1,12,1.0,0.0,M,0.0,M,,*63
$GPGSA,A,3,01,02,03,04,05,06,07,08,09,10,11,12,1.0,1.0,1.0*30
$GPRMC,213427.603,A,5205.224,N,00508.398,E,009.7,086.5,251125,000.0,W*72
$GPGGA,213428.603,5205.225,N,00508.403,E,1,12,1.0,0.0,M,0.0,M,,*68
$GPGSA,A,3,01,02,03,04,05,06,07,08,09,10,11,12,1.0,1.0,1.0*30
$GPRMC,213428.603,A,5205.225,N,00508.403,E,009.7,086.5,251125,000.0,W*79
$GPGGA,213429.603,5205.225,N,00508.407,E,1,12,1.0,0.0,M,0.0,M,,*6D
$GPGSA,A,3,01,02,03,04,05,06,07,08,09,10,11,12,1.0,1.0,1.0*30
$GPRMC,213429.603,A,5205.225,N,00508.407,E,009.7,086.5,251125,000.0,W*7C
$GPGGA,213430.603,5205.225,N,00508.411,E,1,12,1.0,0.0,M,0.0,M,,*62
$GPGSA,A,3,01,02,03,04,05,06,07,08,09,10,11,12,1.0,1.0,1.0*30
$GPRMC,213430.603,A,5205.225,N,00508.411,E,009.7,359.9,251125,000.0,W*7E
$GPGGA,213431.603,5205.228,N,00508.411,E,1,12,1.0,0.0,M,0.0,M,,*6E
$GPGSA,A,3,01,02,03,04,05,06,07,08,09,10,11,12,1.0,1.0,1.0*30
$GPRMC,213431.603,A,5205.228,N,00508.411,E,009.7,359.9,251125,000.0,W*72
$GPGGA,213432.603,5205.230,N,00508.411,E,1,12,1.0,0.0,M,0.0,M,,*64
$GPGSA,A,3,01,02,03,04,05,06,07,08,09,10,11,12,1.0,1.0,1.0*30
$GPRMC,213432.603,A,5205.230,N,00508.411,E,009.7,359.9,251125,000.0,W*78
$GPGGA,213433.603,5205.233,N,00508.411,E,1,12,1.0,0.0,M,0.0,M,,*66
$GPGSA,A,3,01,02,03,04,05,06,07,08,09,10,11,12,1.0,1.0,1.0*30
$GPRMC,213433.603,A,5205.233,N,00508.411,E,009.7,359.9,251125,000.0,W*7A
$GPGGA,213434.603,5205.236,N,00508.411,E,1,12,1.0,0.0,M,0.0,M,,*64
$GPGSA,A,3,01,02,03,04,05,06,07,08,09,10,11,12,1.0,1.0,1.0*30
$GPRMC,213434.603,A,5205.236,N,00508.411,E,009.7,359.9,251125,000.0,W*78
$GPGGA,213435.603,5205.238,N,00508.411,E,1,12,1.0,0.0,M,0.0,M,,*6B
$GPGSA,A,3,01,02,03,04,05,06,07,08,09,10,11,12,1.0,1.0,1.0*30
$GPRMC,213435.603,A,5205.238,N,00508.411,E,009.7,309.7,251125,000.0,W*7C
$GPGGA,213436.603,5205.240,N,00508.408,E,1,12,1.0,0.0,M,0.0,M,,*6F
$GPGSA,A,3,01,02,03,04,05,06,07,08,09,10,11,12,1.0,1.0,1.0*30
$GPRMC,213436.603,A,5205.240,N,00508.408,E,009.7,309.7,251125,000.0,W*78
$GPGGA,213437.603,5205.242,N,00508.405,E,1,12,1.0,0.0,M,0.0,M,,*61
$GPGSA,A,3,01,02,03,04,05,06,07,08,09,10,11,12,1.0,1.0,1.0*30
$GPRMC,213437.603,A,5205.242,N,00508.405,E,009.7,309.7,251125,000.0,W*76
$GPGGA,213438.603,5205.244,N,00508.401,E,1,12,1.0,0.0,M,0.0,M,,*6C
$GPGSA,A,3,01,02,03,04,05,06,07,08,09,10,11,12,1.0,1.0,1.0*30
$GPRMC,213438.603,A,5205.244,N,00508.401,E,009.7,309.7,251125,000.0,W*7B
$GPGGA,213439.603,5205.245,N,00508.398,E,1,12,1.0,0.0,M,0.0,M,,*6B
$GPGSA,A,3,01,02,03,04,05,06,07,08,09,10,11,12,1.0,1.0,1.0*30
$GPRMC,213439.603,A,5205.245,N,00508.398,E,009.7,309.7,251125,000.0,W*7C
$GPGGA,213440.603,5205.247,N,00508.394,E,1,12,1.0,0.0,M,0.0,M,,*6B
$GPGSA,A,3,01,02,03,04,05,06,07,08,09,10,11,12,1.0,1.0,1.0*30
$GPRMC,213440.603,A,5205.247,N,00508.394,E,009.7,309.7,251125,000.0,W*7C
$GPGGA,213441.603,5205.249,N,00508.391,E,1,12,1.0,0.0,M,0.0,M,,*61
$GPGSA,A,3,01,02,03,04,05,06,07,08,09,10,11,12,1.0,1.0,1.0*30
$GPRMC,213441.603,A,5205.249,N,00508.391,E,009.7,253.4,251125,000.0,W*7B
$GPGGA,213442.603,5205.248,N,00508.387,E,1,12,1.0,0.0,M,0.0,M,,*64
$GPGSA,A,3,01,02,03,04,05,06,07,08,09,10,11,12,1.0,1.0,1.0*30
$GPRMC,213442.603,A,5205.248,N,00508.387,E,009.7,253.4,251125,000.0,W*7E
$GPGGA,213443.603,5205.247,N,00508.383,E,1,12,1.0,0.0,M,0.0,M,,*6E
$GPGSA,A,3,01,02,03,04,05,06,07,08,09,10,11,12,1.0,1.0,1.0*30
$GPRMC,213443.603,A,5205.247,N,00508.383,E,009.7,253.4,251125,000.0,W*74
$GPGGA,213444.603,5205.246,N,00508.378,E,1,12,1.0,0.0,M,0.0,M,,*6C
$GPGSA,A,3,01,02,03,04,05,06,07,08,09,10,11,12,1.0,1.0,1.0*30
$GPRMC,213444.603,A,5205.246,N,00508.378,E,009.7,253.4,251125,000.0,W*76
$GPGGA,213445.603,5205.246,N,00508.374,E,1,12,1.0,0.0,M,0.0,M,,*61
$GPGSA,A,3,01,02,03,04,05,06,07,08,09,10,11,12,1.0,1.0,1.0*30
$GPRMC,213445.603,A,5205.246,N,00508.374,E,009.7,253.4,251125,000.0,W*7B
$GPGGA,213446.603,5205.245,N,00508.370,E,1,12,1.0,0.0,M,0.0,M,,*65
$GPGSA,A,3,01,02,03,04,05,06,07,08,09,10,11,12,1.0,1.0,1.0*30
$GPRMC,213446.603,A,5205.245,N,00508.370,E,009.7,253.4,251125,000.0,W*7F
$GPGGA,213447.603,5205.244,N,00508.366,E,1,12,1.0,0.0,M,0.0,M,,*62
$GPGSA,A,3,01,02,03,04,05,06,07,08,09,10,11,12,1.0,1.0,1.0*30
$GPRMC,213447.603,A,5205.244,N,00508.366,E,009.7,253.4,251125,000.0,W*78
$GPGGA,213448.603,5205.243,N,00508.362,E,1,12,1.0,0.0,M,0.0,M,,*6E
$GPGSA,A,3,01,02,03,04,05,06,07,08,09,10,11,12,1.0,1.0,1.0*30
$GPRMC,213448.603,A,5205.243,N,00508.362,E,009.7,314.2,251125,000.0,W*70
$GPGGA,213449.603,5205.245,N,00508.358,E,1,12,1.0,0.0,M,0.0,M,,*60
$GPGSA,A,3,01,02,03,04,05,06,07,08,09,10,11,12,1.0,1.0,1.0*30
$GPRMC,213449.603,A,5205.245,N,00508.358,E,009.7,314.2,251125,000.0,W*7E
$GPGGA,213450.603,5205.247,N,00508.355,E,1,12,1.0,0.0,M,0.0,M,,*67
$GPGSA,A,3,01,02,03,04,05,06,07,08,09,10,11,12,1.0,1.0,1.0*30
$GPRMC,213450.603,A,5205.247,N,00508.355,E,009.7,314.2,251125,000.0,W*79
$GPGGA,213451.603,5205.249,N,00508.352,E,1,12,1.0,0.0,M,0.0,M,,*6F
$GPGSA,A,3,01,02,03,04,05,06,07,08,09,10,11,12,1.0,1.0,1.0*30
$GPRMC,213451.603,A,5205.249,N,00508.352,E,009.7,314.2,251125,000.0,W*71
$GPGGA,213452.603,5205.251,N,00508.349,E,1,12,1.0,0.0,M,0.0,M,,*6F
$GPGSA,A,3,01,02,03,04,05,06,07,08,09,10,11,12,1.0,1.0,1.0*30
$GPRMC,213452.603,A,5205.251,N,00508.349,E,009.7,314.2,251125,000.0,W*71
$GPGGA,213453.603,5205.253,N,00508.346,E,1,12,1.0,0.0,M,0.0,M,,*63
$GPGSA,A,3,01,02,03,04,05,06,07,08,09,10,11,12,1.0,1.0,1.0*30
$GPRMC,213453.603,A,5205.253,N,00508.346,E,009.7,314.2,251125,000.0,W*7D
$GPGGA,213454.603,5205.255,N,00508.343,E,1,12,1.0,0.0,M,0.0,M,,*67
$GPGSA,A,3,01,02,03,04,05,06,07,08,09,10,11,12,1.0,1.0,1.0*30
$GPRMC,213454.603,A,5205.255,N,00508.343,E,009.7,314.2,251125,000.0,W*79
$GPGGA,213455.603,5205.257,N,00508.340,E,1,12,1.0,0.0,M,0.0,M,,*67
$GPGSA,A,3,01,02,03,04,05,06,07,08,09,10,11,12,1.0,1.0,1.0*30
$GPRMC,213455.603,A,5205.257,N,00508.340,E,009.7,026.2,251125,000.0,W*7B
$GPGGA,213456.603,5205.259,N,00508.341,E,1,12,1.0,0.0,M,0.0,M,,*6B
$GPGSA,A,3,01,02,03,04,05,06,07,08,09,10,11,12,1.0,1.0,1.0*30
$GPRMC,213456.603,A,5205.259,N,00508.341,E,009.7,026.2,251125,000.0,W*77
$GPGGA,213457.603,5205.261,N,00508.343,E,1,12,1.0,0.0,M,0.0,M,,*63
$GPGSA,A,3,01,02,03,04,05,06,07,08,09,10,11,12,1.0,1.0,1.0*30
$GPRMC,213457.603,A,5205.261,N,00508.343,E,009.7,026.2,251125,000.0,W*7F
$GPGGA,213458.603,5205.264,N,00508.345,E,1,12,1.0,0.0,M,0.0,M,,*6F
$GPGSA,A,3,01,02,03,04,05,06,07,08,09,10,11,12,1.0,1.0,1.0*30
$GPRMC,213458.603,A,5205.264,N,00508.345,E,009.7,026.2,251125,000.0,W*73
$GPGGA,213459.603,5205.266,N,00508.347,E,1,12,1.0,0.0,M,0.0,M,,*6E
$GPGSA,A,3,01,02,03,04,05,06,07,08,09,10,11,12,1.0,1.0,1.0*30
$GPRMC,213459.603,A,5205.266,N,00508.347,E,009.7,026.2,251125,000.0,W*72
$GPGGA,213500.603,5205.269,N,00508.349,E,1,12,1.0,0.0,M,0.0,M,,*62
$GPGSA,A,3,01,02,03,04,05,06,07,08,09,10,11,12,1.0,1.0,1.0*30
$GPRMC,213500.603,A,5205.269,N,00508.349,E,009.7,026.2,251125,000.0,W*7E
$GPGGA,213501.603,5205.271,N,00508.351,E,1,12,1.0,0.0,M,0.0,M,,*63
$GPGSA,A,3,01,02,03,04,05,06,07,08,09,10,11,12,1.0,1.0,1.0*30
$GPRMC,213501.603,A,5205.271,N,00508.351,E,009.7,026.2,251125,000.0,W*7F
$GPGGA,213502.603,5205.274,N,00508.353,E,1,12,1.0,0.0,M,0.0,M,,*67
$GPGSA,A,3,01,02,03,04,05,06,07,08,09,10,11,12,1.0,1.0,1.0*30
$GPRMC,213502.603,A,5205.274,N,00508.353,E,009.7,026.2,251125,000.0,W*7B
$GPGGA,213503.603,5205.276,N,00508.355,E,1,12,1.0,0.0,M,0.0,M,,*62
$GPGSA,A,3,01,02,03,04,05,06,07,08,09,10,11,12,1.0,1.0,1.0*30
$GPRMC,213503.603,A,5205.276,N,00508.355,E,009.7,026.2,251125,000.0,W*7E
$GPGGA,213504.603,5205.278,N,00508.357,E,1,12,1.0,0.0,M,0.0,M,,*69
$GPGSA,A,3,01,02,03,04,05,06,07,08,09,10,11,12,1.0,1.0,1.0*30
$GPRMC,213504.603,A,5205.278,N,00508.357,E,009.7,026.2,251125,000.0,W*75
$GPGGA,213505.603,5205.281,N,00508.359,E,1,12,1.0,0.0,M,0.0,M,,*60
$GPGSA,A,3,01,02,03,04,05,06,07,08,09,10,11,12,1.0,1.0,1.0*30
$GPRMC,213505.603,A,5205.281,N,00508.359,E,009.7,026.2,251125,000.0,W*7C
$GPGGA,213506.603,5205.283,N,00508.361,E,1,12,1.0,0.0,M,0.0,M,,*6A
$GPGSA,A,3,01,02,03,04,05,06,07,08,09,10,11,12,1.0,1.0,1.0*30
$GPRMC,213506.603,A,5205.283,N,00508.361,E,009.7,026.2,251125,000.0,W*76
$GPGGA,213507.603,5205.286,N,00508.363,E,1,12,1.0,0.0,M,0.0,M,,*6C
$GPGSA,A,3,01,02,03,04,05,06,07,08,09,10,11,12,1.0,1.0,1.0*30
$GPRMC,213507.603,A,5205.286,N,00508.363,E,009.7,026.2,251125,000.0,W*70
$GPGGA,213508.603,5205.288,N,00508.365,E,1,12,1.0,0.0,M,0.0,M,,*6B
$GPGSA,A,3,01,02,03,04,05,06,07,08,09,10,11,12,1.0,1.0,1.0*30
$GPRMC,213508.603,A,5205.288,N,00508.365,E,009.7,026.2,251125,000.0,W*77
$GPGGA,213509.603,5205.290,N,00508.367,E,1,12,1.0,0.0,M,0.0,M,,*61
$GPGSA,A,3,01,02,03,04,05,06,07,08,09,10,11,12,1.0,1.0,1.0*30
$GPRMC,213509.603,A,5205.290,N,00508.367,E,009.7,026.2,251125,000.0,W*7D
$GPGGA,213510.603,5205.293,N,00508.369,E,1,12,1.0,0.0,M,0.0,M,,*64
$GPGSA,A,3,01,02,03,04,05,06,07,08,09,10,11,12,1.0,1.0,1.0*30
$GPRMC,213510.603,A,5205.293,N,00508.369,E,009.7,026.2,251125,000.0,W*78
$GPGGA,213511.603,5205.295,N,00508.371,E,1,12,1.0,0.0,M,0.0,M,,*6A
$GPGSA,A,3,01,02,03,04,05,06,07,08,09,10,11,12,1.0,1.0,1.0*30
$GPRMC,213511.603,A,5205.295,N,00508.371,E,009.7,062.3,251125,000.0,W*77
$GPGGA,213512.603,5205.297,N,00508.374,E,1,12,1.0,0.0,M,0.0,M,,*6E
$GPGSA,A,3,01,02,03,04,05,06,07,08,09,10,11,12,1.0,1.0,1.0*30
$GPRMC,213512.603,A,5205.297,N,00508.374,E,009.7,062.3,251125,000.0,W*73
$GPGGA,213513.603,5205.298,N,00508.378,E,1,12,1.0,0.0,M,0.0,M,,*6C
$GPGSA,A,3,01,02,03,04,05,06,07,08,09,10,11,12,1.0,1.0,1.0*30
$GPRMC,213513.603,A,5205.298,N,00508.378,E,009.7,062.3,251125,000.0,W*71
